STATION,NAME,LATITUDE,LONGITUDE,ELEVATION,DATE,DSND,DSNW,EMSD,EMSN,EMXP,PRCP,SNOW
US1NCCC0010,"POINT HARBOR 0.2 WSW, NC US",36.078571,-75.797325,2.1,2021-02,,,,,1.84,9.37,
US1NCBT0037,"MERRY HILL 3.2 N, NC US",36.05853,-76.76573,10.7,2021-02,,,,,1,7.34,
US1NCCC0014,"COROLLA 5.8 SSE, NC US",36.299,-75.803,2.7,2021-02,,,,,1.19,9.06,
USC00317319,"ROANOKE RAPIDS, NC US",36.47893,-77.67141,64,2021-02,,,,,1.4,8.21,
US1NCCC0015,"GRANDY 0.6 E, NC US",36.242784,-75.867977,0.6,2021-02,,,,,1.4,8.52,
US1NCCC0019,"MOYOCK 1.8 SSE, NC US",36.502925,-76.161466,3,2021-02,,,,,0.95,6.02,
USC00314055,"HIGHLANDS, NC US",35.05646,-83.19822,1173.5,2021-02,3,1,5,5.2,1.51,8.86,5.9
US1NCDP0036,"KENANSVILLE 1.1 SW, NC US",34.950863,-77.978949,37.2,2021-02,,,,,,7.23,
US1NCHW0058,"CRABTREE 1.7 ENE, NC US",35.60944,-82.91278,864.4,2021-02,,,,,1.09,4.28,
USW00013766,"MANTEO AIRPORT, NC US",35.9173,-75.7,4,2021-02,0,,0,,1.2,6.5,
US1NCCR0049,"EMERALD ISLE 2.3 WSW, NC US",34.65437114,-77.06712574,5.2,2021-02,,,,,1.76,8.69,
USC00316236,"NORTH FORK 2, NC US",35.66308,-82.34446,755.9,2021-02,0,2,0,2,0.97,4.3,3
USR0000NRCK,"ROCKINGHAM NORTH CAROLINA, NC US",34.96,-79.69,121.9,2021-02,,,,,,,
USC00316001,"MURPHY 4 ESE, NC US",35.0714,-83.9684,487.7,2021-02,2,1,2,1.2,1.52,6.59,2.2
USC00314063,"HIGH POINT, NC US",35.96743,-79.97086,274.3,2021-02,0,0,0,0,1.18,7.24,0
US1NCML0001,"BAKERSVILLE 5.4 N, NC US",36.092,-82.175,1168,2021-02,,,,,0.74,4.26,
US1NCRB0007,"LUMBERTON 2.6 ESE, NC US",34.620673,-78.971868,44.5,2021-02,,,,,1.76,7.83,
US1NCML0002,"BAKERSVILLE 2.5 SE, NC US",35.989,-82.128,893.1,2021-02,8,3,4,4,0.88,4.16,7
US1NCDP0025,"ALBERTSON 1.2 WNW, NC US",35.12012,-77.83897,30.2,2021-02,,,,,2,8.55,
US1NCHW0048,"WAYNESVILLE 4.1 NNW, NC US",35.53742981,-83.03031921,824.8,2021-02,,,,,1.25,5.29,
USW00013776,"LUMBERTON REGIONAL AIRPORT, NC US",34.608,-79.0591,36.9,2021-02,,,,,1.67,6.02,
US1NCCR0012,"MOREHEAD CITY 0.6 NW, NC US",34.73,-76.74,4,2021-02,,,,,2.12,10.09,
USC00316256,"NORTH WILKESBORO, NC US",36.1638,-81.1536,341.4,2021-02,1,0,1,0.8,0.85,5.74,0.8
US1NCDP0017,"ROSE HILL 0.1 NNW, NC US",34.82587,-78.02864,30.2,2021-02,,,,,2.23,7.09,
US1NCML0011,"SPRUCE PINE 3.7 ESE, NC US",35.88905,-82.012514,833.9,2021-02,,,,,0.82,4.22,
US1NCRB0017,"LUMBERTON 8.6 SSE, NC US",34.512735,-78.975122,33.5,2021-02,,,,,2.94,8.88,
US1NCML0014,"SPRUCE PINE 4.5 WSW, NC US",35.900646,-82.147713,782.4,2021-02,,,,,0.65,3.43,
US1NCBF0034,"CHOCOWINITY 0.2 W, NC US",35.514085,-77.102408,10.4,2021-02,,,,,2.01,9.15,
US1NCBF0031,"BATH 4.1 NNW, NC US",35.5197,-76.8445,5.2,2021-02,,,,,1.16,6.85,
US1NCAG0001,"SPARTA 3.5 SSW, NC US",36.458975,-81.152517,946.1,2021-02,,1,,2.5,,,2.5
US1NCBF0029,"WASHINGTON 1.0 SSW, NC US",35.5428,-77.0587,1.2,2021-02,,,,,1.8,9.61,
US1NCCR0020,"HARKERS ISLAND 3.2 NE, NC US",34.7315,-76.51765,2.1,2021-02,,,,,2.63,11.22,
USW00013748,"WILMINGTON INTERNATIONAL AIRPORT, NC US",34.2675,-77.8997,10.1,2021-02,0,0,0,0,1.25,6.04,0
US1NCCR0028,"OCEAN 0.5 S, NC US",34.7056,-76.9898,7,2021-02,0,0,0,0,1.66,5.57,0
US1NCHW0064,"WAYNESVILLE 0.3 NE, NC US",35.488329,-82.993961,,2021-02,,,,,1.18,5.25,
USC00315177,"LUMBERTON, NC US",34.6269,-79.025,34.1,2021-02,,,,,2.1,5.59,
US1NCFK0010,"WAKE FOREST 3.5 NNW, NC US",36.019193,-78.535489,121.3,2021-02,,,,,1.06,8.22,
US1NCFK0011,"ZEBULON 5.3 N, NC US",35.90126,-78.310288,88.1,2021-02,,,,,,5.98,
US1NCAG0007,"SPARTA 3.6 NW, NC US",36.54386,-81.16327,819.6,2021-02,,,,,0.52,3.64,
USW00013754,"HAVELOCK CHERRY POINT MCAS, NC US",34.9,-76.88333,8.8,2021-02,,,,,1.3,6.11,
US1NCBF0020,"WASHINGTON 7.2 SE, NC US",35.49076,-76.951221,1.8,2021-02,,,,,1.62,7.87,
USC00311817,"CLAYTON 3 E, NC US",35.63495,-78.39793,101.2,2021-02,,,,,1.34,8,
USC00310724,"BENT CREEK, NC US",35.5044,-82.5966,643.1,2021-02,,0,,0,,,0
USW00003758,"DURHAM 11 W, NC US",35.9705,-79.0931,171.3,2021-02,,,,,0.95,6.13,
US1NCYD0004,"YADKINVILLE 0.2 E, NC US",36.13089752,-80.65548706,280.4,2021-02,,,,,0.76,6.03,
US1NCYD0003,"YADKINVILLE 6.3 SSE, NC US",36.05318451,-80.60283661,260.6,2021-02,,1,,1,1.19,5.93,1
US1NCPT0007,"WINTERVILLE 3.5 W, NC US",35.5258,-77.4605,25.9,2021-02,,,,,1.43,7.57,
US1NCBD0002,"ELIZABETHTOWN 6.2 NW, NC US",34.6847098,-78.6903913,46,2021-02,,,,,2.09,7.37,
US1NCBD0001,"BLADENBORO 2.0 NNW, NC US",34.565567,-78.811349,39.6,2021-02,,,,,3.22,9.38,
USC00318694,"TRANSOU, NC US",36.40039,-81.30525,863.8,2021-02,9,1,4,3.5,0.85,3.7,3.5
USC00318450,"SWANQUARTER FERRY, NC US",35.395,-76.326,0.9,2021-02,,,,,3,9.3,
US1NCHW0017,"CANTON 1.5 N, NC US",35.56776,-82.83938,847.6,2021-02,,,,,1.16,4.2,
US1NCHW0016,"CLYDE 0.6 SSE, NC US",35.526097,-82.907325,779.7,2021-02,,,,,1.16,4.57,
US1NCCR0001,"NEWPORT 0.2 SW, NC US",34.7857,-76.8633,9.1,2021-02,,,,,1.62,8.13,
US1NCRC0008,"NORMAN 0.4 SSE, NC US",35.16433333,-79.7195,178.6,2021-02,,,,,1.03,7.02,
USR0000NCAS,"CASWELL GAME LANDS N. CAROLINA, NC US",36.3856,-79.2919,176.8,2021-02,,,,,,,
US1NCCR0009,"BEAUFORT 5.3 N, NC US",34.7971,-76.6708,2.1,2021-02,,,,,2.47,12,
USC00311820,"CLAYTON WTP, NC US",35.6408,-78.4633,91.4,2021-02,,,,,1.33,8.87,
USC00319555,"W. KERR SCOTT RESV., NC US",36.1308,-81.2275,326.1,2021-02,0,0,0,0,,5.32,0
US1NCPT0018,"GREENVILLE 7.1 SSE, NC US",35.507226,-77.321396,18,2021-02,,,,,1.6,7.86,
US1NCPT0017,"GREENVILLE 4.6 W, NC US",35.602401,-77.455678,25.3,2021-02,,,,,1.63,8.67,
US1NCHW0002,"MAGGIE VALLEY 2.9 ENE, NC US",35.5389,-83.0467,1051.6,2021-02,4,2,4,3.7,1.31,6.02,5.6
USC00318221,"SPRUCE PINE 4 ENE, NC US",35.93246,-82.00232,850.4,2021-02,1,1,3,3,0.85,4.36,3
US1NCPT0010,"FOUNTAIN 0.1 NE, NC US",35.674598,-77.637674,33.8,2021-02,,,,,1.23,7.36,
US1NCHW0004,"WAYNESVILLE 0.7 ENE, NC US",35.488416,-82.986752,816.9,2021-02,,,,,1.32,6.2,
US1NCRC0013,"HAMLET 0.6 S, NC US",34.880863,-79.709213,105.5,2021-02,,,,,1.38,6.65,
USC00310506,"BANNER ELK, NC US",36.1616,-81.8741,1149.1,2021-02,9,3,6,4.5,0.9,4.33,10.5
US1NCBR0007,"LONG BEACH 2.9 NE, NC US",33.945148,-78.111556,11.9,2021-02,,,,,,8.17,
US1NCBR0006,"SUNSET BEACH 1.7 WNW, NC US",33.884053,-78.53773,4.9,2021-02,,,,,1.89,9.63,
US1NCBR0002,"LELAND 5.7 WSW, NC US",34.2024,-78.09481,21,2021-02,0,0,0,0,1.46,8.3,0
US1NCBR0001,"CALABASH 1.9 NNE, NC US",33.9246539,-78.5696509,13.4,2021-02,,,,,2.09,10.11,
USC00310982,"BOONE 1 SE, NC US",36.21395,-81.64563,944.9,2021-02,5,2,3,2.5,0.84,4.5,3.5
US1NCHW0030,"WAYNESVILLE 2.2 SE, NC US",35.458483,-82.973765,1126.8,2021-02,,,,,1.3,4.47,
US1NCHW0035,"WAYNESVILLE 5.5 NNW, NC US",35.558258,-83.034368,827.8,2021-02,,,,,1.36,5.74,
US1NCPT0021,"GREENVILLE 4.3 SSE, NC US",35.5408,-77.35,19.2,2021-02,,,,,1.66,7.3,
USR0000NMTI,"MOUNT ISLAND LAKE NORTH CAROLINA, NC US",35.3789,-80.9925,152.4,2021-02,,,,,,,
US1NCHW0039,"MAGGIE VALLEY 2.1 ENE, NC US",35.53165054,-83.05953217,1092.4,2021-02,,,,,1.45,6.28,
USW00013786,"ELIZABETH CITY COAST GUARD AIR STATION, NC US",36.26056,-76.175,4,2021-02,0,0,0,0,1.13,6.49,0
US1NCON0113,"JACKSONVILLE 2.3 NNE, NC US",34.7947,-77.3869,14,2021-02,,,,,2.09,7.86,
US1NCON0114,"SWANSBORO 4.3 SW, NC US",34.64533,-77.18136,1.8,2021-02,,,,,1.55,8.12,
USC00311606,"CEDAR ISLAND, NC US",34.9833,-76.3,2.4,2021-02,0,0,0,0,2.15,9.19,0
US1NCAV0007,"LINVILLE FALLS 0.5 SW, NC US",35.95442,-81.952002,1024.7,2021-02,,,,,,4.79,
US1NCBR0013,"SOUTHPORT 5.9 W, NC US",33.939318,-78.123579,7.6,2021-02,,,,,2.06,8.07,
USC00310750,"B. EVERETT JORDAN DAM, NC US",35.6542,-79.0706,94.5,2021-02,,,,,,6.06,
US1NCON0123,"JACKSONVILLE 3.3 W, NC US",34.761631,-77.461794,7,2021-02,,,,,2.21,7.79,
US1NCPT0035,"GREENVILLE 2.8 ESE, NC US",35.58953476,-77.3261261,14,2021-02,,,,,1.63,7.7,
US1NCAV0010,"PLUMTREE 0.5 W, NC US",36.027813,-82.016926,917.1,2021-02,,,,,0.94,4.83,
US1NCHW0025,"WAYNESVILLE 1.0 NW, NC US",35.493224,-83.012711,926.6,2021-02,,,,,1.36,6.53,
US1NCON0126,"HOLLY RIDGE 4.9 ENE, NC US",34.506954,-77.471675,7,2021-02,,,,,1.62,8.35,
US1NCON0124,"HOLLY RIDGE 3.7 E, NC US",34.490126,-77.490179,9.1,2021-02,,,,,1.43,7.61,
US1NCCT0042,"MAIDEN 5.7 ENE, NC US",35.60639,-81.11102,316.7,2021-02,,,,,1.2,5.57,
US1NCMK0034,"MOUNT HOLLY 4.8 E, NC US",35.307277,-80.946864,205.7,2021-02,,,,,0.95,5.69,
USC00312940,"FAIRFIELD, NC US",35.5361,-76.3121,1.5,2021-02,0,,0,,1.6,6.22,
USC00319100,"WASHINGTON WWTP 4 W, NC US",35.55239,-77.0723,3,2021-02,0,0,0,0,1.37,8.09,0
US1NCMK0037,"DAVIDSON 0.8 W, NC US",35.49928665,-80.86012268,218.5,2021-02,,,,,0.83,6.24,
US1NCCT0048,"TERRELL 1.2 SE, NC US",35.579499,-80.9602,232,2021-02,,,,,1.18,5.67,
US1NCCA0004,"SOUTH MILLS 0.1 SW, NC US",36.44363,-76.328896,2.7,2021-02,,,,,1.09,6.86,
US1NCON0134,"CAMP LEJEUNE 1.4 NW, NC US",34.70924,-77.38458,4.9,2021-02,,,,,1.8,7.07,
US1NCWT0011,"FOSCOE 1.2 WSW, NC US",36.14607,-81.78767,996.7,2021-02,8,2,5,3.3,1.1,5.03,5
US1NCWT0010,"BLOWING ROCK 2.2 NE, NC US",36.148359,-81.640031,1054,2021-02,,,,,0.88,5.15,
US1NCCS0005,"YANCEYVILLE 2.4 SW, NC US",36.379289,-79.369125,150,2021-02,,,,,1.1,6.95,
US1NCPT0040,"GREENVILLE 2.0 SE, NC US",35.578383,-77.349917,21,2021-02,,,,,1.53,7.24,
US1NCCS0002,"MEBANE 11.2 N, NC US",36.251023,-79.238215,210,2021-02,,,,,1.35,7.74,
US1NCPS0001,"ELIZABETH CITY 2.6 W, NC US",36.30151667,-76.2668,3.4,2021-02,,,,,1.33,7.72,
US1NCON0138,"SNEADS FERRY 1.2 SSW, NC US",34.53719,-77.38554,3.4,2021-02,,,,,1.48,7.81,
US1NCIR0002,"HARMONY 3.4 SW, NC US",35.926022,-80.818824,260.9,2021-02,,,,,1.33,6.52,
USC00312719,"ELIZABETH CITY, NC US",36.3096,-76.205,2.4,2021-02,0,0,0,0,1.33,7.9,0
USC00311624,"CELO 2 S, NC US",35.82638,-82.1837,823,2021-02,8,1,2,2.2,0.88,5.67,2.3
US1NCIR0005,"STATESVILLE 2.9 ENE, NC US",35.795278,-80.834722,258.5,2021-02,,,,,1.04,6.57,
US1NCIR0008,"STATESVILLE 4.0 ENE, NC US",35.805219,-80.817922,281,2021-02,,,,,1.1,6.78,
US1NCBR0035,"OAK ISLAND 2.3 E, NC US",33.917905,-78.120767,6.4,2021-02,,,,,2.17,8.85,
USC00310531,"BARNARDSVILLE 2 SE, NC US",35.76,-82.4325,707.1,2021-02,4,2,3,2.7,0.77,3.89,4.4
US1NCCT0037,"NEWTON 3.4 S, NC US",35.61579,-81.21682,274,2021-02,,,,,1.18,5.48,
US1NCCT0038,"MAIDEN 3.6 W, NC US",35.56687,-81.26869,285.3,2021-02,,,,,1.48,6.67,
US1NCCT0039,"NEWTON 2.9 SE, NC US",35.635138,-81.183106,292.9,2021-02,1,1,2,1.7,1.26,5.84,1.7
USR0000NNCP,"NORTH COVE PINNACLE N. CAROLIN, NC US",35.8167,-81.9372,780.3,2021-02,,,,,,,
US1NCSM0008,"CLINTON 1.5 NE, NC US",35.01718886,-78.31416115,47.2,2021-02,,,,,1.59,8.19,
US1NCPT0055,"WINTERVILLE 1.0 ENE, NC US",35.534348,-77.3819,26.8,2021-02,0,0,0,0,1.47,7.52,0
US1NCCB0032,"MOUNT PLEASANT 3.9 ENE, NC US",35.425305,-80.37362,190.5,2021-02,,,,,0.71,6.17,
US1NCDR0051,"RODANTHE 1.0 SSE, NC US",35.580543,-75.464628,2.1,2021-02,,,,,1.92,8.51,
US1NCSM0001,"CLINTON 5.8 SW, NC US",34.941149,-78.405799,43.9,2021-02,,,,,1.37,7.46,
USC00317170,"REELSBORO, NC US",35.131,-76.9153,13.7,2021-02,0,0,0,0,1.46,7.52,0
US1NCMK0053,"CHARLOTTE 7.0 ENE, NC US",35.2365,-80.7197,227.1,2021-02,,,,,0.88,4.53,
US1NCPS0029,"ELIZABETH CITY 1.8 SE, NC US",36.28133,-76.19496,2.1,2021-02,,,,,1.26,8,
US1NCIR0017,"HARMONY 2.2 N, NC US",35.989379,-80.768892,283.5,2021-02,,,,,1.48,7.11,
US1NCIR0019,"STATESVILLE 6.5 WSW, NC US",35.749448,-80.992562,289,2021-02,,,,,1.11,6.08,
US1NCBR0045,"BOLIVIA 7.6 SW, NC US",33.98538971,-78.22995758,13.1,2021-02,,,,,2.08,8.35,
USC00319123,"WATERVILLE 2, NC US",35.77449,-83.09985,435.9,2021-02,,,,,1.04,5.02,
US1NCCT0027,"HICKORY 5.3 NE, NC US",35.78706,-81.25164,324.9,2021-02,,,,,0.8,5.87,
USR0000NGUI,"GUION FARM NORTH CAROLINA, NC US",35.2133,-82.59,792.5,2021-02,,,,,,,
US1NCCB0020,"MOUNT PLEASANT 0.3 SSE, NC US",35.398288,-80.434669,191.4,2021-02,,,,,,5.27,
US1NCCB0024,"CONCORD 3.2 WSW, NC US",35.39602,-80.649234,193.9,2021-02,,,,,,5.15,
US1NCCB0023,"CONCORD 1.8 ENE, NC US",35.4135,-80.564,206,2021-02,,,,,0.77,6.04,
USC00316096,"NEWPORT MOREHEAD CITY WEATHER FORECAST OFFICE, NC US",34.7763,-76.877,9.1,2021-02,0,0,0,0,1.59,7.09,0
US1NCCB0021,"MIDLAND 1.9 WSW, NC US",35.214363,-80.529724,159.1,2021-02,,,,,,4.18,
US1NCDR0063,"BUXTON 0.3 ENE, NC US",35.270821,-75.53435,1.5,2021-02,,,,,2.04,7.76,
US1NCPT0063,"WINTERVILLE 2.8 WNW, NC US",35.550485,-77.439309,21.9,2021-02,,,,,1.73,8.42,
US1NCDR0062,"MANTEO 2.8 NW, NC US",35.926289,-75.704517,4,2021-02,,,,,1.78,9.37,
US1NCCB0026,"CONCORD 3.4 NNE, NC US",35.4505,-80.564,193.2,2021-02,,,,,0.89,5.01,
US1NCDR0069,"SOUTHERN SHORES 0.5 NNE, NC US",36.125743,-75.729176,7.6,2021-02,,,,,1.6,8.57,
US1NCPS0027,"ELIZABETH CITY 5.1 SSE, NC US",36.22385,-76.20091,1.8,2021-02,,,,,1.33,7.85,
US1NCMK0064,"MATTHEWS 1.3 S, NC US",35.1027,-80.7156,200.6,2021-02,,,,,0.72,5.25,
US1NCMK0068,"HUNTERSVILLE 2.0 W, NC US",35.417665,-80.880048,228,2021-02,,,,,1.08,5.78,
USR0000NNAC,"NATURE CONSERVANCY NORTH CAROL, NC US",34.0483,-78.2903,16.8,2021-02,,,,,,,
US1NCWS0003,"ROPER 2.4 NE, NC US",35.8983068,-76.582247,3,2021-02,,,,,1.85,8.72,
US1NCBR0056,"OAK ISLAND 0.9 ENE, NC US",33.92149353,-78.14719391,6.7,2021-02,,,,,1.45,6.2,
US1NCSN0014,"RICHFIELD 1.9 W, NC US",35.47077,-80.29033,195.7,2021-02,,,,,0.78,5.09,
USC00311881,"CLINTON 2 NE, NC US",35.02508,-78.276,48.2,2021-02,,,,,1.3,6.67,
US1NCWT0051,"VILAS 2.0 SSW, NC US",36.224063,-81.782648,849.5,2021-02,,,,,0.74,3.94,
US1NCPS0030,"ELIZABETH CITY 0.8 NW, NC US",36.3032,-76.2334,1.8,2021-02,,,,,,6.72,
US1NCIR0021,"MOORESVILLE 1.3 WSW, NC US",35.568733,-80.832221,249.3,2021-02,,,,,1.08,5.91,
US1NCAS0022,"FLEETWOOD 3.1 SSE, NC US",36.265016,-81.488872,1012.9,2021-02,,,,,0.8,4.59,
US1NCCD0014,"LENOIR 10.6 NNE, NC US",36.054581,-81.484265,477.9,2021-02,,,,,0.82,4.93,
US1NCWK0061,"RALEIGH 8.4 N, NC US",35.9425,-78.6812,126.8,2021-02,,,,,1.12,7.3,
USC00312500,"DUNN 4 NW, NC US",35.32432,-78.68782,61,2021-02,,,,,1.08,8.86,
US1NCWK0065,"HOLLY SPRINGS 3.6 SSE, NC US",35.604149,-78.818929,136.2,2021-02,,,,,1.55,7.09,
USC00319147,"WAYNESVILLE 1 E, NC US",35.4868,-82.9681,810.2,2021-02,3,3,3,3,1.22,5.78,5.2
US1NCJC0021,"SYLVA 2.1 NNE, NC US",35.402451,-83.20964,749.8,2021-02,,,,,,6.33,
US1NCBR0061,"SOUTHPORT 2.7 NNW, NC US",33.959876,-78.040303,9.1,2021-02,,,,,2.31,9.26,
US1NCPR0005,"HERTFORD 5.2 SSE, NC US",36.11580276,-76.43390656,3,2021-02,,,,,1.28,8.5,
US1NCSN0006,"RICHFIELD 0.2 SSW, NC US",35.468295,-80.25775,199,2021-02,,,,,0.67,5.31,
USC00312740,"ELKIN, NC US",36.25465,-80.86396,277.4,2021-02,1,0,1,0.1,1.02,5.23,0.1
US1NCJC0019,"TUCKASEGEE 3.7 ESE, NC US",35.255121,-83.05926,957.4,2021-02,,,,,1.01,5.14,
US1NCPT0088,"GREENVILLE 5.0 SE, NC US",35.5489,-77.3111,19.8,2021-02,,,,,1.53,7.49,
US1NCBF0016,"BATH 6.6 ESE, NC US",35.4265,-76.7072,1.8,2021-02,,,,,2.26,9.74,
US1NCFK0020,"LOUISBURG 10.6 SSE, NC US",35.970495,-78.196786,57.6,2021-02,,,,,1.09,8.61,
USC00318292,"STATESVILLE 2 NNE, NC US",35.8099,-80.8808,244.8,2021-02,1,1,1,1,1.12,6.03,1
US1NCCB0008,"CONCORD 4.5 SW, NC US",35.36472,-80.65495,193.9,2021-02,,,,,0.85,6.04,
US1NCFK0025,"FRANKLINTON 3.7 SSE, NC US",36.0513,-78.4435,114,2021-02,,,,,1.17,8.32,
US1NCAS0012,"LANSING 5.9 NW, NC US",36.5628,-81.58241,1052.2,2021-02,,3,,4,1,4.6,8.7
US1NCCD0027,"LENOIR 5.7 E, NC US",35.89923,-81.43364,393.8,2021-02,,,,,0.9,5.14,
USC00314938,"LENOIR, NC US",35.9147,-81.5374,352,2021-02,1,1,3,3.6,0.8,5.11,3.6
USC00311429,"CANE CREEK RESERVOIR, NC US",35.9495,-79.2386,160,2021-02,,,,,0.86,6.85,
US1NCBR0078,"LELAND 4.1 S, NC US",34.181751,-78.015339,7.6,2021-02,,,,,1.66,7.45,
US1NCPR0014,"HERTFORD 11.4 E, NC US",36.175195,-76.270258,0.9,2021-02,,,,,1.17,7.96,
USC00310576,"BAYBORO 3 SW, NC US",35.1311,-76.816,1.5,2021-02,0,0,0,0,1.51,8.08,0
USR0000NGRC,"GREENS CROSS NORTH CAROLINA, NC US",36.0175,-76.8917,12.8,2021-02,,,,,,,
US1NCBR0073,"BOLIVIA 8.0 SW, NC US",33.98785019,-78.24365234,9.4,2021-02,,,,,1.89,7.37,
US1NCWK0079,"CARY 1.1 W, NC US",35.7827,-78.819163,127.4,2021-02,,,,,1.18,8.18,
USC00311420,"CANDLER 1 W, NC US",35.5453,-82.6987,682.8,2021-02,2,1,4,4,0.8,3.59,4
US1NCBR0071,"BOLIVIA 7.8 SW, NC US",33.9989909,-78.251092,11.6,2021-02,,,,,1.79,8.11,
US1NCPR0015,"HERTFORD 6.0 SSE, NC US",36.10837,-76.42121,3,2021-02,,,,,1.37,8.55,
USC00312993,"FALLS LAKE, NC US",35.9808,-78.6529,85.3,2021-02,,,,,1.07,8.5,
USR0000NGRF,"GRANDFATHER NORTH CAROLINA, NC US",35.7564,-82.0439,487.7,2021-02,,,,,,,
US1NCAS0002,"CRESTON 2.8 SW, NC US",36.4075,-81.6689,926.6,2021-02,,,,,0.83,4.15,
US1NCWK0084,"APEX 5.5 SW, NC US",35.66919,-78.91351,93.9,2021-02,,,,,0.96,6.45,
USC00311677,"CHAPEL HILL 2 W, NC US",35.9086,-79.0794,152.4,2021-02,,,,,1.03,6.48,
US1NCBR0083,"HOLDEN BEACH 1.7 ENE, NC US",33.913963,-78.284392,2.4,2021-02,,,,,2.53,9.04,
US1NCBR0082,"YAUPON BEACH 0.2 SSW, NC US",33.904826,-78.078248,5.5,2021-02,,,,,3.67,14.54,
US1NCNH0046,"WILMINGTON 6.2 SSE, NC US",34.129467,-77.868518,1.5,2021-02,,,,,2.01,9.08,
US1NCLN0010,"VALE 4.2 W, NC US",35.539062,-81.471724,335,2021-02,,,,,1.15,6.71,
US1NCDR0028,"MANTEO 2.5 WNW, NC US",35.917809,-75.704407,3,2021-02,,,,,1.48,9.26,
USR0000NCHE,"CHEOAH NORTH CAROLINA, NC US",35.3333,-83.8167,640.1,2021-02,,,,,,,
US1NCHK0014,"RED SPRINGS 3.8 NW, NC US",34.849074,-79.235635,66.8,2021-02,,,,,1.2,5.34,
US1NCWK0090,"RALEIGH 3.8 SSW, NC US",35.77,-78.68,87.5,2021-02,,,,,1.11,7.75,
USC00310356,"ATLANTIC BEACH WATER PLANT, NC US",34.6997,-76.7381,1.2,2021-02,0,0,0,0,2.41,10.61,0
US1NCBR0098,"LELAND 1.4 WNW, NC US",34.246907,-78.02947,5.8,2021-02,,,,,1.72,8.59,
USC00313625,"GREENSBORO WTP, NC US",36.08317,-79.80447,233.2,2021-02,,,,,0.9,6.57,
US1NCBR0096,"BOLIVIA 6.2 SSW, NC US",33.99463,-78.20301,11.3,2021-02,,,,,1.9,8.09,
US1NCNH0058,"WILMINGTON 3.0 SE, NC US",34.18388367,-77.87084961,6.1,2021-02,,,,,1.36,8.06,
USR0000NREN,"RENDEZVOUS MOUNTAIN NORTH CAROLINA, NC US",36.2275,-81.2975,726.6,2021-02,,,,,,,
US1NCNH0063,"SMITH CREEK 0.8 E, NC US",34.263102,-77.849303,14,2021-02,,,,,1.44,6.07,
US1NCNH0062,"CAROLINA BEACH 1.0 N, NC US",34.054435,-77.897115,6.1,2021-02,,,,,1.93,9.46,
US1NCBR0090,"SUNSET BEACH 2.5 NE, NC US",33.90272,-78.482076,7.9,2021-02,,,,,1.87,9.49,
US1NCHK0003,"RAEFORD 9.6 E, NC US",34.9592,-79.0558,63.1,2021-02,0,0,0,0,1.68,7.69,0
US1NCLN0004,"LINCOLNTON 4.4 WSW, NC US",35.4606,-81.3296,270.4,2021-02,,1,,2.3,1.28,5.85,2.3
USC00313638,"GREENVILLE, NC US",35.64,-77.3984,9.8,2021-02,0,0,0,0,1.05,6.95,0
US1NCWK0022,"APEX 6.1 ESE, NC US",35.6918,-78.7443,121.9,2021-02,,,,,1.13,8.06,
US1NCWK0020,"HOLLY SPRINGS 6.0 ENE, NC US",35.681989,-78.734861,121.9,2021-02,,,,,1.17,8.25,
USC00314962,"LEWISTON, NC US",36.1325,-77.1708,15.2,2021-02,,,,,0.98,6.66,
US1NCNH0066,"WILMINGTON 3.7 S, NC US",34.15884,-77.92118,3,2021-02,,,,,1.81,8.29,
US1NCWK0027,"RALEIGH 5.7 ENE, NC US",35.838056,-78.559722,81.1,2021-02,,,,,1.14,7.67,
US1NCNH0068,"WILMINGTON 7.3 NE, NC US",34.275786,-77.808867,7.9,2021-02,,,,,1.86,8.81,
US1NCNH0073,"CAROLINA BEACH 0.4 WSW, NC US",34.036644,-77.901682,6.1,2021-02,,,,,1.93,9.65,
USC00314970,"LEXINGTON, NC US",35.84566,-80.25987,231.6,2021-02,,,,,2,9.61,
US1NCDS0013,"CLEMMONS 6.5 SE, NC US",35.959984,-80.298842,256.3,2021-02,,,,,1,6.5,
USR0000NSUN,"SUNNY POINT NORTH CAROLINA, NC US",34.0028,-77.9581,9.1,2021-02,,,,,,,
US1NCWK0270,"WENDELL 1.3 NNE, NC US",35.7986,-78.358,84.7,2021-02,,,,,,7.38,
US1NCCN0022,"NEW BERN 1.4 WSW, NC US",35.114168,-77.102334,8.8,2021-02,,,,,2.51,9.43,
US1NCHD0015,"SQ TOWER, NC US",35.4116,-76.3258,0.9,2021-02,,,,,1.7,8.02,
US1NCHD0014,"OCRACOKE 0.2 ESE, NC US",35.107813,-75.969299,0.3,2021-02,,,,,2.39,10.21,
US1NCCN0020,"HAVELOCK 1.4 SW, NC US",34.89571,-76.916094,6.4,2021-02,,,,,1.64,8.02,
US1NCHD0013,"ENGELHARD 0.8 NW, NC US",35.519675,-76.004754,0.6,2021-02,,,,,1.62,8.45,
US1NCNH0081,"WILMINGTON 6.7 NE, NC US",34.266997,-77.813722,8.8,2021-02,,,,,,8.35,
US1NCNH0082,"WILMINGTON 2.8 SE, NC US",34.1787,-77.884,8.5,2021-02,,,,,1.94,9.16,
US1NCSK0011,"KING 4.2 N, NC US",36.3387981,-80.3653077,302.1,2021-02,,,,,1.14,5.24,
US1NCDS0022,"DENTON 1.1 NNW, NC US",35.651476,-80.11914,199,2021-02,,,,,0.89,6.27,
US1NCSK0010,"WALNUT COVE 1.5 ENE, NC US",36.30664542,-80.11714339,183.8,2021-02,,,,,1.21,6.06,
US1NCDS0021,"HIGH POINT 3.3 WSW, NC US",35.968695,-80.055181,261.2,2021-02,,,,,1,5.94,
US1NCWK0282,"RALEIGH 12.7 SSW, NC US",35.64354,-78.71493,107.6,2021-02,,,,,1.2,7.81,
US1NCJN0001,"NEW BERN 4.4 SW, NC US",35.07159388,-77.12831294,4.9,2021-02,,,,,1.73,7.96,
US1NCWK0283,"FUQUAY VARINA 1.6 SE, NC US",35.572488,-78.777151,124.7,2021-02,,,,,1.98,10.19,
US1NCRT0006,"CHIMNEY ROCK 0.3 E, NC US",35.441842,-82.254283,366.7,2021-02,,,,,0.68,4.51,
USC00315838,"MORGANTON, NC US",35.72972,-81.67273,359.7,2021-02,1,1,1,1.5,0.85,4.73,1.5
USC00314987,"LILLINGTON, NC US",35.40688,-78.82024,45.7,2021-02,,,,,1.07,6.16,
US1NCNH0088,"WRIGHTSBORO 2.9 ENE, NC US",34.303739,-77.87955,11.3,2021-02,,,,,1.46,8.12,
US1NCCN0034,"JAMES CITY 2.0 S, NC US",35.036296,-77.021226,6.1,2021-02,,,,,1.6,7.68,
US1NCDS0025,"LEXINGTON 11.4 N, NC US",35.97426,-80.26039,258.8,2021-02,,,,,,6.06,
USC00315830,"MOREHEAD CITY 2 WNW, NC US",34.7336,-76.7357,3,2021-02,0,,0,,2.8,10.88,
US1NCCN0030,"NEW BERN 7.3 ESE, NC US",35.07766342,-76.96113586,2.4,2021-02,,,,,1.82,8.3,
US1NCCN0031,"NEW BERN 8.8 W, NC US",35.141027,-77.232407,13.1,2021-02,,,,,2.81,8.78,
US1NCRT0008,"UNION MILLS 2.6 ENE, NC US",35.5012619,-81.920747,317.9,2021-02,,,,,0.83,5.44,
US1NCSK0002,"DANBURY 4.6 NNW, NC US",36.46511459,-80.25659943,323.4,2021-02,,,,,1.53,5,
US1NCRT0016,"FOREST CITY 2.1 WSW, NC US",35.328738,-81.906171,306.3,2021-02,,,,,0.83,4.97,
US1NCWK0298,"CARY 0.4 NNW, NC US",35.78833,-78.80099,139.6,2021-02,,,,,1.16,7.49,
USC00311248,"BURNSVILLE AG, NC US",35.92503,-82.27161,861.1,2021-02,,,,,0.95,3.78,
USC00314997,"LINCOLNTON 2 NW, NC US",35.48,-81.2799,245.4,2021-02,1,1,2,2,1.25,5.91,2
USC00312574,"EAST FLAT ROCK 3 SE, NC US",35.24573,-82.38916,527.3,2021-02,,,,,,4.33,
US1NCCN0044,"NEW BERN 5.3 SW, NC US",35.07467651,-77.15361023,6.7,2021-02,,,,,2.02,7.72,
USC00314996,"LINCOLNTON 4 W, NC US",35.4606,-81.3296,270.4,2021-02,0,1,0,2.3,1.01,5.53,2.3
US1NCRT0010,"RUTHERFORDTON 2.6 WSW, NC US",35.352842,-82.00522,310.6,2021-02,,,,,0.94,4.95,
US1NCCM0008,"FAYETTEVILLE 1.6 WSW, NC US",35.064246,-78.926823,66.1,2021-02,,,,,1.74,7.75,
US1NCCM0006,"HOPE MILLS 8.3 SE, NC US",34.880642,-78.860023,43.6,2021-02,,,,,2.5,8.69,
USR0000NUWH,"UWHARRIE TROY NORTH CAROLINA, NC US",35.3667,-79.8667,164.6,2021-02,,,,,,,
US1NCCM0005,"FAYETTEVILLE 4.4 SW, NC US",35.023718,-78.950863,47.9,2021-02,,,,,1.76,8.12,
US1NCCM0001,"FAYETTEVILLE 2.4 S, NC US",35.036733,-78.906833,46.9,2021-02,,0,,0,1.66,7.79,0
USC00314764,"LAKE LURE 2, NC US",35.42041,-82.18753,317,2021-02,1,1,1,1,0.82,6.06,1
USR0000NDUK,"DUKE FOREST NORTH CAROLINA, NC US",35.9667,-79.0917,172.2,2021-02,,,,,,,
USC00312102,"COWEETA EXPERIMENTAL STATION, NC US",35.0604,-83.4301,684.9,2021-02,1,1,2,2.5,1.65,6.81,2.5
US1NCWK0215,"APEX 2.0 WNW, NC US",35.73180008,-78.87898254,96,2021-02,,,,,1.07,7.4,
US1NCTR0021,"BREVARD 0.7 SE, NC US",35.2311055,-82.7218157,653.8,2021-02,,,,,1.18,5.52,
US1NCTR0029,"SAPPHIRE 4.6 SW, NC US",35.059478,-83.008389,969,2021-02,,,,,1.41,6.82,
US1NCTR0027,"CEDAR MOUNTAIN 1.9 E, NC US",35.148222,-82.609583,895.5,2021-02,,,,,1.03,5.39,
US1NCTR0026,"BREVARD 2.2 SSW, NC US",35.207387,-82.742831,667.5,2021-02,,,,,1.42,4.88,
US1NCWL0018,"NORTH WILKESBORO 5.5 SE, NC US",36.111715,-81.073993,340.8,2021-02,,,,,1.02,5.56,
US1NCPK0006,"SALUDA 0.5 N, NC US",35.24541,-82.34928,646.8,2021-02,,,,,0.94,4.85,
US1NCPK0008,"RUTHERFORDTON 9.5 S, NC US",35.22758,-81.976704,285.6,2021-02,,,,,0.79,4.58,
US1NCWK0235,"RALEIGH 1.2 WNW, NC US",35.827667,-78.679333,99.4,2021-02,,,,,1.1,6.14,
US1NCTR0032,"BREVARD 10.1 S, NC US",35.094104,-82.764919,843.4,2021-02,,,,,0.83,5.51,
US1NCTR0030,"BREVARD 6.7 S, NC US",35.14097,-82.73639,913.5,2021-02,,,,,1.07,5.31,
USW00053870,"GASTONIA MUNICIPAL AIRPORT, NC US",35.19667,-81.15583,242.9,2021-02,,,,,1.24,5.29,
USW00053872,"MONROE AIRPORT, NC US",35.01694,-80.62056,207,2021-02,,,,,0.7,4.78,
USW00053877,"ASHEVILLE 8 SSW, NC US",35.4945,-82.6142,655.6,2021-02,,,,,0.89,3.97,
US1NCMR0040,"ABERDEEN 0.7 NW, NC US",35.147273,-79.428785,120.1,2021-02,0,0,0,0,1.33,6.89,0
USW00053878,"ASHEVILLE 13 S, NC US",35.4185,-82.5567,641,2021-02,,,,,1.19,4.73,
US1NCPK0036,"TRYON 3.5 ENE, NC US",35.220038,-82.178565,299.9,2021-02,,,,,0.84,4.97,
USC00318906,"VALE AG 2 SW, NC US",35.52364,-81.44435,300.2,2021-02,1,1,1,1.5,1.07,5.65,1.5
US1NCWK0242,"RALEIGH 7.9 SSW, NC US",35.718607,-78.717989,116.1,2021-02,,,,,,6.3,
US1NCWK0001,"RALEIGH 10.3 N, NC US",35.969613,-78.688719,113.1,2021-02,,,,,1.13,8,
USC00314788,"LAKE TOXAWAY 2 SW, NC US",35.0966,-82.9509,975.4,2021-02,1,1,4,4,,6.53,4
USC00317813,"SHALLOTTE AG, NC US",33.9283,-78.3894,6.1,2021-02,,,,,1.48,6.44,
US1NCWK0004,"APEX 3.4 ESE, NC US",35.71335,-78.7854,125,2021-02,,,,,1.14,7.81,
US1NCWK0247,"APEX 1.8 E, NC US",35.729496,-78.813766,134.1,2021-02,,,,,1.04,7.23,
US1NCWK0002,"RALEIGH 1.5 SW, NC US",35.805725,-78.675888,110,2021-02,,,,,1.11,7.57,
US1NCWK0003,"RALEIGH 6.2 E, NC US",35.814267,-78.547817,73.2,2021-02,,,,,1.1,6.43,
US1NCTR0001,"BREVARD 1.2 NNW, NC US",35.2551,-82.7351,771.1,2021-02,,,,,1.49,6.91,
US1NCSM0011,"HARRELLS 0.7 SE, NC US",34.7238,-78.1905,23.8,2021-02,,,,,2.77,7.89,
US1NCTR0005,"BREVARD 5.4 E, NC US",35.229216,-82.635764,642.5,2021-02,,,,,1.01,4.63,
US1NCPK0025,"COLUMBUS 1.7 SSE, NC US",35.224717,-82.190807,338,2021-02,,,,,0.95,5.29,
US1NCWK0250,"ROLESVILLE 0.6 NE, NC US",35.93331,-78.44825,128.9,2021-02,,,,,1.14,7.27,
US1NCCN0009,"NEW BERN 1.3 NNE, NC US",35.13871,-77.07385,4.9,2021-02,,,,,2.22,9.43,
USC00313228,"FRANKLIN, NC US",35.18038,-83.39294,647.7,2021-02,2,1,2,2,1.33,5.7,2
US1NCWK0013,"RALEIGH 5.9 ENE, NC US",35.862421,-78.566454,103.9,2021-02,,,,,0.98,7.59,
US1NCWK0255,"GORMAN 7.2 SE, NC US",35.977313,-78.708743,126.2,2021-02,,,,,1.06,7.65,
US1NCWK0006,"HOLLY SPRINGS 1.1 ESE, NC US",35.64888,-78.81709,123.1,2021-02,,,,,1.06,7.28,
US1NCGV0010,"OXFORD 2.5 WSW, NC US",36.2965,-78.629902,156.1,2021-02,,,,,1.28,7.86,
USC00315890,"MOUNT AIRY 2 W, NC US",36.49618,-80.65226,329.2,2021-02,1,0,1,0.3,1.04,5.19,0.3
US1NCSM0025,"CLINTON 4.5 SSE, NC US",34.944812,-78.290015,42.7,2021-02,,,,,1.9,8.02,
US1NCSM0024,"HARRELLS 0.7 SE, NC US",34.72298,-78.19274,23.5,2021-02,,,,,2.65,8.09,
US1NCGV0016,"CREEDMOOR 4.3 E, NC US",36.118611,-78.609722,113.1,2021-02,,,,,0.96,7.26,
US1NCSM0023,"NEWTON GROVE 2.6 SSE, NC US",35.215605,-78.343165,53.9,2021-02,,,,,1.74,7.68,
US1NCSM0022,"ROSEBORO 10.0 N, NC US",35.098589,-78.50821,52.1,2021-02,,,,,1.95,7.68,
US1NCBC0129,"WOODFIN 3.7 NW, NC US",35.67764,-82.62631,629.4,2021-02,,,,,0.74,3.06,
US1NCGS0021,"GASTONIA 1.8 SSE, NC US",35.2282486,-81.15982056,226.2,2021-02,,,,,1.33,5.66,
USC00313238,"GARNER, NC US",35.6708,-78.6608,100.6,2021-02,,,,,1.5,7.68,
US1NCBC0121,"ASHEVILLE 2.4 NNW, NC US",35.606532,-82.564416,647.4,2021-02,,,,,0.8,3.44,
USC00311055,"BREVARD, NC US",35.22844,-82.73575,662.9,2021-02,1,1,2,2,1.4,7.02,2
USC00316510,"OXFORD AG, NC US",36.30402,-78.61083,152.4,2021-02,,,,,1.45,7.37,
USC00317845,"SHELBY 2 NW, NC US",35.31099,-81.57096,249.9,2021-02,1,1,1,1.5,1.17,5.54,1.5
US1NCBC0105,"BLACK MOUNTAIN 1.3 NNE, NC US",35.631942,-82.322097,791,2021-02,0,1,0,2.3,0.64,3.61,2.4
US1NCGS0044,"GASTONIA 4.3 E, NC US",35.24704742,-81.0959549,200.9,2021-02,,,,,1.21,5.63,
US1NCCR0095,"CAPE CARTERET 0.8 N, NC US",34.70579,-77.05772,9.8,2021-02,,,,,1,5.37,
USC00317618,"SALISBURY 9 WNW, NC US",35.6967,-80.6225,221,2021-02,0,0,0,0.5,1.06,6.3,0.5
USC00313017,"FAYETTEVILLE PWC, NC US",35.05909,-78.85883,29.3,2021-02,,,,,1.6,7.33,
US1NCWK0203,"RALEIGH 3.6 NNE, NC US",35.871259,-78.638678,121.6,2021-02,0,0,0,0,1.29,7.71,0
USW00093727,"NEW RIVER MCAF, NC US",34.70842,-77.43966,7.9,2021-02,,,,,1.37,5.48,
USW00093729,"CAPE HATTERAS BILLY MITCHELL FIELD, NC US",35.2326,-75.6219,3.4,2021-02,0,0,0,0,1.45,6.62,0
USC00311081,"BRIDGEWATER HYDRO, NC US",35.7427,-81.8362,335.3,2021-02,,,,,0.83,4.43,
US1NCWL0010,"PURLEAR 4.6 WNW, NC US",36.2132355,-81.3574197,420,2021-02,,1,,1,1.15,4.76,1
US1NCGS0037,"KINGS MOUNTAIN 3.4 NNE, NC US",35.288582,-81.330879,284.4,2021-02,,,,,1.11,5.36,
US1NCNS0002,"NASHVILLE 3.2 W, NC US",35.970875,-78.010894,68.3,2021-02,,,,,1.09,8.07,
US1NCBC0114,"FAIRVIEW 0.3 NNW, NC US",35.527152,-82.406555,711.4,2021-02,,,,,0.8,3.77,
US1NCBC0110,"ASHEVILLE 1.1 NNE, NC US",35.58895,-82.542764,712.6,2021-02,,,,,0.83,3.74,
US1NCWK0214,"HOLLY SPRINGS 3.3 E, NC US",35.655784,-78.777755,95.4,2021-02,,,,,1.17,7.96,
US1NCWK0212,"CARY 1.3 WNW, NC US",35.791759,-78.819966,121.3,2021-02,,,,,,5.8,
USW00093719,"NEW BERN ASOS, NC US",35.0677,-77.048,5.8,2021-02,0,0,0,0,1.56,6.64,0
US1NCCR0073,"PINE KNOLL SHORES 1.4 E, NC US",34.698465,-76.7939278,3.4,2021-02,,,,,2.44,10.56,
US1NCCR0074,"NEWPORT 1.0 N, NC US",34.80241098,-76.86422937,8.2,2021-02,,,,,1.72,8.55,
US1NCCR0075,"PINE KNOLL SHORES 0.3 NE, NC US",34.698233,-76.814932,1.5,2021-02,,,,,2.18,9.95,
US1NCBC0161,"WEAVERVILLE 0.7 SW, NC US",35.688195,-82.565183,642.8,2021-02,,,,,0.74,3.2,
USC00317400,"ROCKY MOUNT 8 ESE, NC US",35.8936,-77.6806,33.5,2021-02,,,,,1.5,8.35,
US1NCPM0012,"ORIENTAL 5.2 NE, NC US",35.092905,-76.626399,1.2,2021-02,,,,,2.37,8.88,
US1NCCR0070,"BEAUFORT 1.5 NNW, NC US",34.742526,-76.659896,1.5,2021-02,,,,,2.13,9.77,
US1NCWN0026,"KENLY 2.2 E, NC US",35.59223501,-78.08680908,70.1,2021-02,,,,,1.21,7.02,
US1NCWN0025,"WILSON 11.0 SW, NC US",35.639512,-78.084095,63.7,2021-02,,,,,1.11,6.94,
US1NCPM0010,"ORIENTAL 4.3 NNW, NC US",35.090532,-76.720234,2.4,2021-02,,,,,1.68,8.22,
USC00318500,"TARBORO 1 S, NC US",35.88413,-77.53857,10.7,2021-02,,,,,1.35,7.51,
US1NCPM0002,"ORIENTAL 2.1 WSW, NC US",35.022647,-76.718177,7,2021-02,,,,,2.29,8.51,
US1NCPM0003,"MERRITT 1.5 WSW, NC US",35.0924258,-76.7400729,2.7,2021-02,,,,,1.52,8.29,
US1NCWN0015,"ELM CITY 7.1 ESE, NC US",35.755,-77.7545,43.9,2021-02,,,,,1.33,7.77,
US1NCWN0017,"WILSON 3.3 NNW, NC US",35.778105,-77.938165,41.5,2021-02,,,,,1.46,8.43,
US1NCRW0017,"SALISBURY 3.4 NW, NC US",35.696149,-80.532192,233.8,2021-02,,,,,0.94,5.76,
USW00003810,"HICKORY FAA AIRPORT, NC US",35.74207,-81.38229,358.1,2021-02,,,,,0.86,4.63,
US1NCRW0016,"FAITH 0.3 WNW, NC US",35.589538,-80.465536,254.8,2021-02,,,,,0.92,6.7,
USW00003812,"ASHEVILLE AIRPORT, NC US",35.4319,-82.5375,645.3,2021-02,1,1,3,2.8,1.17,4.45,2.9
US1NCBC0145,"AVERY CREEK 0.9 ESE, NC US",35.4567,-82.5596,647.1,2021-02,,,,,0.83,4.44,
US1NCBC0147,"WEAVERVILLE 1.4 SE, NC US",35.685819,-82.538099,648,2021-02,,,,,0.74,3.35,
US1NCCR0053,"NEWPORT 1.7 SSE, NC US",34.7645925,-76.85201459,5.8,2021-02,,,,,1.76,9.22,
US1NCBK0013,"JONAS RIDGE 1.4 S, NC US",35.95204,-81.891753,1107.9,2021-02,,,,,0.88,3.92,
US1NCGS0009,"BELMONT 0.4 E, NC US",35.249,-81.0335,205.4,2021-02,,,,,1.09,6.17,
US1NCGS0006,"GASTONIA 3.9 ESE, NC US",35.25389,-81.12006,211.8,2021-02,,,,,1.4,6.49,
USC00317656,"SANFORD 8 NE, NC US",35.53554,-79.04747,79.9,2021-02,,,,,1.04,6.85,
USC00318744,"TRYON, NC US",35.20574,-82.25178,402.3,2021-02,1,1,2,2.5,0.87,5.3,2.5
US1NCDV0001,"SHEFFIELD 1.3 SW, NC US",35.951931,-80.694574,256.6,2021-02,,1,,2.5,1.13,6.15,2.5
US1NCDV0002,"ADVANCE 0.2 ESE, NC US",35.941354,-80.413365,254.5,2021-02,,,,,1.05,6.46,
US1NCRW0015,"SPENCER 2.3 N, NC US",35.72795868,-80.43518829,211.5,2021-02,,,,,0.91,7.04,
US1NCDV0009,"SHEFFIELD 1.9 NE, NC US",35.99574789,-80.6641712,278.9,2021-02,,,,,1.24,5.22,
US1NCAX0011,"TAYLORSVILLE 3.4 SSE, NC US",35.8742,-81.1609,324.6,2021-02,,,,,0.98,5.59,
US1NCBC0155,"FAIRVIEW 2.7 SE, NC US",35.497,-82.36878,746.8,2021-02,,,,,,4.53,
US1NCBC0157,"ASHEVILLE 1.3 N, NC US",35.593095,-82.549822,659.9,2021-02,,,,,0.7,3.52,
USC00318519,"TAYLORSVILLE, NC US",35.9225,-81.1716,402.3,2021-02,1,1,1,1.5,1.02,6.06,1.5
US1NCBK0002,"GLEN ALPINE 2.8 S, NC US",35.6886819,-81.7860105,343.8,2021-02,,,,,0.94,4.72,
US1NCBK0004,"GLEN ALPINE 0.7 WSW, NC US",35.7266,-81.7902,384.7,2021-02,,,,,0.84,3.73,
US1NCBC0150,"LEICESTER 4.5 SW, NC US",35.61842,-82.763046,780.3,2021-02,2,2,3,3,1,4.08,4.1
USC00313072,"FLAT SPRINGS 1 E, NC US",36.25251,-81.91352,1015,2021-02,11,3,8,6.9,0.62,4.68,13.6
USR0000NBUS,"BUSICK NORTH CAROLINA, NC US",35.7694,-82.1917,881.5,2021-02,,,,,,,
USC00316341,"CHEROKEE, NC US",35.48997,-83.31361,598.9,2021-02,1,2,1,2.5,1.35,6.46,4.6
US1NCPM0029,"ORIENTAL 1.9 WSW, NC US",35.021495,-76.71414,1.5,2021-02,,,,,2.11,8.9,
US1NCDV0012,"MOCKSVILLE 3.7 W, NC US",35.8917,-80.6225,234.1,2021-02,,,,,0.95,6.13,
US1NCAX0009,"MILLERSVILE 1.2 SW, NC US",35.840017,-81.197432,324.6,2021-02,,,,,0.84,3.59,
US1NCDV0014,"BERMUDA RUN 0.3 WSW, NC US",35.99873483,-80.43194133,218.8,2021-02,,,,,1,5.96,
US1NCAX0006,"HIDDENITE 1.5 SE, NC US",35.88681,-81.07442,341.1,2021-02,,1,,1.5,1.08,5.43,1.5
US1NCPM0020,"GRANTSBORO 4.6 SSW, NC US",35.08031063,-76.88090332,7,2021-02,,,,,1.58,8.63,
US1NCPM0021,"LOWLAND 0.2 SE, NC US",35.2968509,-76.5612869,0.6,2021-02,,,,,2.05,9.13,
US1NCCR0150,"CEDAR ISLAND 0.3 SSE, NC US",35.00501,-76.31272,0.9,2021-02,,,,,1.59,8.83,
US1NCCR0152,"BEAUFORT 6.3 NNW, NC US",34.809611,-76.677368,1.2,2021-02,,,,,2.76,10.19,
US1NCAN0008,"PEACHLAND 2.7 SW, NC US",34.96177,-80.29274,145.4,2021-02,,,,,1.07,6.71,
USC00316349,"OCRACOKE, NC US",35.1075,-75.9872,1.2,2021-02,0,0,0,0,2.37,8.47,0
USC00317202,"REIDSVILLE 2 NW, NC US",36.3796,-79.6944,271.3,2021-02,0,1,0,1,1.14,6.19,1
USW00013881,"CHARLOTTE DOUGLAS AIRPORT, NC US",35.2236,-80.9552,221.9,2021-02,0,0,0,0.2,0.82,5.16,0.2
USW00093782,"LAURINBURG MAXTON AIRPORT, NC US",34.79167,-79.36611,67.1,2021-02,,,,,1.35,6.07,
USW00093783,"BURLINGTON ALAMANCE REGIONAL AIRPORT, NC US",36.04667,-79.47694,188.1,2021-02,,,,,0.78,5.17,
USC00316122,"NEW HILL, NC US",35.68107,-78.91557,97.5,2021-02,,,,,0.7,5.38,
USR0000NHOF,"HOFMANN FOREST NORTH CAROLINA, NC US",34.825,-77.3219,12.8,2021-02,,,,,,,
US1NCCR0139,"BEAUFORT 0.5 W, NC US",34.721443,-76.661865,2.1,2021-02,,,,,2.17,10.41,
US1NCCR0135,"CEDAR ISLAND 0.6 SSE, NC US",35.00032,-76.31053,0.6,2021-02,,,,,2.9,10.93,
US1NCCR0136,"BEAUFORT 3.8 N, NC US",34.77599,-76.66529,2.1,2021-02,,,,,2.48,10.81,
US1NCCR0137,"CEDAR POINT 0.4 WSW, NC US",34.67885,-77.08712,6.7,2021-02,,,,,1.55,7.45,
US1NCCR0138,"BEAUFORT 3.4 NNW, NC US",34.7694,-76.6694,1.8,2021-02,,,,,2.47,10.05,
US1NCWN0006,"SIMS 4.0 SW, NC US",35.7208,-78.1108,68.9,2021-02,,,,,1.37,7.55,
US1NCCR0142,"BEAUFORT 1.4 N, NC US",34.741057,-76.657234,2.1,2021-02,,,,,,10.45,
US1NCPN0017,"HURDLE MILLS 5.2 NNW, NC US",36.3397,-79.0933,184.4,2021-02,,,,,1.19,7.15,
US1NCCK0019,"MURPHY 15.7 WSW, NC US",35.003513,-84.282741,687,2021-02,,,,,2.12,6.7,
USR0000NBAC,"BACK ISLAND NORTH CAROLINA, NC US",34.5328,-77.7219,6.1,2021-02,,,,,,,
US1NCCR0146,"CAPE CARTERET 1.5 NE, NC US",34.711434,-77.043202,254.5,2021-02,0,0,0,0,1.58,7.87,0
USC00317229,"RHODHISS HYDRO PLANT, NC US",35.7747,-81.4372,297.5,2021-02,,,,,0.89,4.91,
USC00316380,"OLD FORT AG 3 W, NC US",35.6672,-82.1236,434.3,2021-02,1,1,1,1,0.88,4.67,1
USW00013872,"ASHEVILLE, NC US",35.5954,-82.5568,682.1,2021-02,2,2,2,2,0.8,3.49,3.7
US1NCNS0030,"ZEBULON 5.4 E, NC US",35.82098,-78.222807,91.4,2021-02,,,,,1.32,7.66,
US1NCCM0093,"ROSEBORO 6.5 SW, NC US",34.88781,-78.59489,32.6,2021-02,,,,,,7.07,
US1NCCM0091,"FAYETTEVILLE 6.3 WNW, NC US",35.1044,-79.0034,72.5,2021-02,,,,,1.34,7.48,
US1NCCM0092,"FAYETTEVILLE 11.4 SSE, NC US",34.91052,-78.85498,48.5,2021-02,,,,,2.33,7.81,
US1NCHN0012,"EAST FLAT ROCK 0.5 NNE, NC US",35.291041,-82.414334,647.7,2021-02,1,1,4,4.9,0.96,5.15,4.9
US1NCHN0014,"HENDERSONVILLE 4.8 SW, NC US",35.279975,-82.530936,695.6,2021-02,,,,,0.97,5.16,
US1NCCR0114,"BEAUFORT 15.1 N, NC US",34.93966,-76.62863,1.5,2021-02,,,,,1.62,9.02,
USC00317486,"ROSMAN, NC US",35.137,-82.8204,664.5,2021-02,2,1,4,4,1.07,5.3,4
US1NCHN0015,"HENDERSONVILLE 9.6 ENE, NC US",35.385745,-82.3103188,845.5,2021-02,,,,,0.8,4.32,
US1NCHN0016,"HENDERSONVILLE 3.4 NW, NC US",35.357838,-82.503878,671.2,2021-02,,,,,0.93,5.06,
USW00093740,"FAYETTEVILLE REGIONAL AIRPORT GRANNIS FIELD, NC US",34.99139,-78.88028,56.7,2021-02,,,,,0.97,5.31,
US1NCCR0120,"ATLANTIC BEACH 0.6 W, NC US",34.6987,-76.7497,3.4,2021-02,,,,,2.8,10.89,
US1NCNS0021,"ROCKY MOUNT 9.2 SW, NC US",35.85316,-77.91277,44.8,2021-02,,,,,1.38,9.07,
USC00311949,"COLUMBIA AG GUM NECK, NC US",35.7109,-76.127,3,2021-02,0,0,0,0,1.63,8.77,0
US1NCGS0053,"GASTONIA 1.6 WSW, NC US",35.2428,-81.1977,244.4,2021-02,,,,,1.27,5.61,
US1NCGS0054,"CATAWBA HILLS 0.1 SSE, NC US",35.214992,-81.109828,202.7,2021-02,,,,,1.07,5.69,
US1NCHN0002,"FLETCHER 1.2 WSW, NC US",35.430765,-82.524227,645,2021-02,,,,,1.15,4.55,
USC00311700,"CHATHAM WTP, NC US",35.73366,-79.00322,93.9,2021-02,,,,,0.98,7.06,
USC00319675,"YADKINVILLE 6 E, NC US",36.1306,-80.5481,266.7,2021-02,,,,,1.19,5.82,
US1NCHN0004,"EAST FLAT ROCK 2.1 W, NC US",35.2817,-82.4564,737,2021-02,,,,,1,4.94,
US1NCGS0052,"GASTONIA 8.4 SW, NC US",35.165329,-81.274442,230.4,2021-02,,,,,1.33,5.92,
US1NCMD0009,"PLEASANT GARDENS 0.8 WSW, NC US",35.6891,-82.0742,409.7,2021-02,,,,,0.87,3.94,
US1NCMD0008,"OLD FORT 3.6 NW, NC US",35.67527,-82.21297,585.8,2021-02,,,,,1.04,5.02,
US1NCHN0033,"HENDERSONVILLE 5.1 WSW, NC US",35.288142,-82.542124,665.7,2021-02,,,,,1,3.95,
USC00319440,"WILLIAMSTON 1 E, NC US",35.8529,-77.0306,6.1,2021-02,0,0,0,0,2.8,10.35,0
USR0000NWHI,"WHITEVILLE NORTH CAROLINA, NC US",34.3361,-78.7286,30.5,2021-02,,,,,,,
US1NCHN0030,"LAUREL PARK 1.5 W, NC US",35.3084,-82.5274,823,2021-02,1,1,1,4.9,0.94,5.79,4.9
USR0000NNWB,"NEW BERN NORTH CAROLINA, NC US",35.0967,-77.1108,6.1,2021-02,,,,,,,
US1NCHN0032,"HENDERSONVILLE 2.4 SSE, NC US",35.29042435,-82.44307709,647.1,2021-02,,,,,,4.23,
US1NCHN0038,"ETOWAH 1.1 WNW, NC US",35.321685,-82.612622,675.7,2021-02,,,,,1.12,5.31,
US1NCMD0019,"OLD FORT 4.9 SW, NC US",35.578809,-82.234536,816.9,2021-02,,,,,0.8,5.13,
USW00093765,"BEAUFORT MICHAEL J SMITH FIELD, NC US",34.73258,-76.65659,2.4,2021-02,0,0,0,0,1.94,7.89,0
US1NCCR0107,"CEDAR POINT 0.9 WSW, NC US",34.674481,-77.094795,4,2021-02,,,,,1.52,7.4,
US1NCCR0109,"CAPE CARTERET 0.8 NE, NC US",34.70198059,-77.04959869,8.5,2021-02,,,,,,7.11,
US1NCHN0025,"HENDERSONVILLE 6.1 SSW, NC US",35.24086391,-82.50441026,694.3,2021-02,,,,,0.96,4.97,
US1NCCR0104,"MOREHEAD CITY 5.7 W, NC US",34.7374,-76.8315,6.7,2021-02,,,,,2,10.24,
USW00093759,"ROCKY MOUNT WILSON AIRPORT, NC US",35.855,-77.89306,48.8,2021-02,,,,,0.89,6.27,
US1NCHN0027,"HENDERSONVILLE 4.9 NNE, NC US",35.39151001,-82.44403839,698.6,2021-02,,,,,1.11,4.65,
US1NCHN0028,"HENDERSONVILLE 2.6 SSW, NC US",35.288337,-82.482811,654.1,2021-02,,,,,0.95,4.96,
USR0000NHIG,"HIGHLANDS NORTH CAROLINA, NC US",35.0836,-83.2178,1158.2,2021-02,,,,,,,
US1NCON0004,"SWANSBORO 3.3 NW, NC US",34.72642,-77.16724,6.1,2021-02,,,,,1.44,7.45,
USC00313919,"HAW RIVER 1 E, NC US",36.06397,-79.36929,193.9,2021-02,,,,,0.97,7.11,
USC00310645,"BEECH MOUNTAIN, NC US",36.18738,-81.87409,1540.2,2021-02,12,2,8,8,0.5,3.81,10.3
USC00319461,"WILMINGTON 7 SE, NC US",34.1425,-77.8788,9.1,2021-02,,0,,0,1.62,7.44,0
USC00311975,"CONCORD, NC US",35.4111,-80.5834,213.4,2021-02,0,0,0,0.5,0.88,6.23,0.5
US1NCHN0053,"FLAT ROCK 1.0 NE, NC US",35.280196,-82.428522,661.7,2021-02,,,,,0.87,4.68,
US1NCHN0054,"MILLS RIVER 1.1 N, NC US",35.40352,-82.56427,654.4,2021-02,,,,,1.15,4.95,
US1NCCN0094,"NEW BERN 3.8 S, NC US",35.0652,-77.07789,5.8,2021-02,,,,,1.9,8.3,
US1NCCN0096,"TRENT WOODS 0.9 WNW, NC US",35.083451,-77.111011,3,2021-02,,,,,1.95,8.44,
US1NCCN0093,"HAVELOCK 1.9 SSE, NC US",34.880585,-76.886178,7,2021-02,,,,,1.27,5.3,
US1NCDH0078,"DURHAM 4.6 WNW, NC US",36.0085,-78.99,142.3,2021-02,0,0,0,0,1.02,7.22,0
US1NCDH0072,"DURHAM 6.5 SSW, NC US",35.892428,-78.9565,80.8,2021-02,,,,,1.06,7.24,
US1NCON0019,"JACKSONVILLE 1.0 NW, NC US",34.7738,-77.4185,6.7,2021-02,,,,,2.11,8.05,
US1NCCM0058,"HOPE MILLS 0.6 ESE, NC US",34.969616,-78.94381,33.2,2021-02,,,,,1.68,7.27,
USR0000NSND,"SANDY RUN NORTH CAROLINA, NC US",34.6119,-77.4875,12.2,2021-02,,,,,,,
US1NCCM0056,"LINDEN 4.2 S, NC US",35.19423676,-78.74362183,31.1,2021-02,,,,,1.5,7.84,
US1NCFR0043,"RURAL HALL 2.2 ESE, NC US",36.224,-80.2567,253.6,2021-02,,,,,1.15,6.09,
US1NCCW0020,"EDENTON 4.3 SE, NC US",36.011352,-76.548417,2.7,2021-02,,,,,1.35,7.84,
US1NCCM0060,"HOPE MILLS 1.7 NE, NC US",34.992054,-78.933732,61.3,2021-02,,,,,,7.61,
US1NCCW0027,"TYNER 3.1 NNW, NC US",36.276784,-76.622465,11.3,2021-02,,,,,,7.08,
USC00313923,"HAYESVILLE 1 NE, NC US",35.0541,-83.81352,546.2,2021-02,0,0,0,0,1.34,6.29,0
US1NCHN0044,"GERTON 0.4 SW, NC US",35.476,-82.353,858.3,2021-02,,,,,0.79,4.54,
US1NCHN0046,"HENDERSONVILLE 3.5 WNW, NC US",35.346215,-82.515418,761.7,2021-02,,,,,0.96,4.56,
US1NCHN0047,"HENDERSONVILLE 3.3 SW, NC US",35.2852,-82.50115,709.3,2021-02,,,,,0.9,5.48,
USC00319476,"WILSON 3 SW, NC US",35.6938,-77.946,33.5,2021-02,,,,,1.02,6.69,
US1NCHN0040,"HENDERSONVILLE 4.4 NW, NC US",35.356746,-82.526631,676.7,2021-02,,,,,0.89,4.98,
US1NCMC0012,"FRANKLIN 4.4 ESE, NC US",35.161389,-83.307778,645,2021-02,,1,,3,1.53,6,3.1
US1NCDH0068,"DURHAM 2.3 SW, NC US",35.95429,-78.93905,91.7,2021-02,,,,,1.16,7.25,
US1NCMC0004,"FRANKLIN 4.9 NNW, NC US",35.247,-83.414,602.6,2021-02,,1,,1.4,1.53,5.57,1.4
US1NCCL0025,"WHITEVILLE 6.1 NW, NC US",34.379617,-78.792861,30.5,2021-02,,,,,3.03,7.6,
US1NCCL0026,"TABOR CITY 3.5 NE, NC US",34.18957901,-78.8360672,31.4,2021-02,,,,,3.07,10.13,
US1NCON0020,"HUBERT 4.9 SE, NC US",34.6681,-77.1785,9.1,2021-02,,,,,1.58,7.78,
US1NCDH0062,"DURHAM 7.5 NNE, NC US",36.08589,-78.88568,111.9,2021-02,,,,,1.1,7.76,
US1NCCM0068,"FAYETTEVILLE 1.4 SW, NC US",35.054968,-78.913021,52.7,2021-02,,,,,,8.13,
US1NCFR0034,"WINSTON SALEM 4.2 NNE, NC US",36.15277,-80.22146,303,2021-02,,,,,1.02,6.06,
US1NCAL0014,"HAW RIVER 8.6 SSE, NC US",35.975542,-79.309454,175.9,2021-02,,,,,0.9,7.39,
US1NCVN0003,"HENDERSON 2.5 WSW, NC US",36.3136396,-78.4538112,128,2021-02,,,,,1.3,7.95,
US1NCVN0005,"HENDERSON 2.5 NNE, NC US",36.3558,-78.3896,152.7,2021-02,,,,,1.64,9.57,
US1NCVN0006,"TOWNSVILLE 4.9 NE, NC US",36.54166232,-78.35692737,105.5,2021-02,,,,,0.82,4.8,
USC00311990,"CONOVER OXFORD SHOALS, NC US",35.8213,-81.1919,269.1,2021-02,,,,,0.91,5.8,
US1NCON0034,"RICHLANDS 2.8 NW, NC US",34.93043889,-77.58023056,19.5,2021-02,,,,,2.98,10.1,
US1NCMR0009,"WHISPERING PINES 2.1 NE, NC US",35.27947,-79.35665,120.7,2021-02,,,,,1.15,7.32,
USC00318158,"SPARTA 3.5 SSW, NC US",36.45927,-81.15275,917.8,2021-02,,,,,,,
US1NCCW0028,"EDENTON 13.3 NNW, NC US",36.2301,-76.7035,3,2021-02,,,,,0.96,7.28,
US1NCDH0052,"PARKWOOD 2.5 W, NC US",35.889316,-78.954248,82.3,2021-02,,,,,1.06,6.23,
US1NCCM0086,"STEDMAN 1.0 NW, NC US",35.0195,-78.7125,39,2021-02,,,,,2.23,7.57,
US1NCCM0087,"FAYETTEVILLE 2.5 NNE, NC US",35.106518,-78.889656,54.6,2021-02,,,,,1.5,7.42,
US1NCFR0022,"KERNERSVILLE 1.1 SSW, NC US",36.103255,-80.0835199,294.7,2021-02,,,,,1.02,7.14,
US1NCHN0061,"HENDERSONVILLE 1.0 SSW, NC US",35.307278,-82.466467,655,2021-02,,,,,0.93,5.09,
US1NCCM0080,"FAYETTEVILLE 4.1 NNW, NC US",35.111501,-78.892974,65.2,2021-02,,,,,,6.72,
US1NCMC0032,"FRANKLIN 4.1 ENE, NC US",35.207599,-83.317309,756.5,2021-02,,,,,,4.31,
US1NCHN0063,"BAT CAVE 1.8 NNW, NC US",35.475405,-82.30415,703.8,2021-02,1,1,3,3.2,0.77,4.49,3.2
US1NCON0045,"SNEADS FERRY 2.1 SSE, NC US",34.52395248,-77.37075043,0.3,2021-02,,,,,1.6,7.58,
US1NCDH0047,"DURHAM 4.5 SW, NC US",35.92904663,-78.9648056,87.2,2021-02,,,,,1.05,7.06,
US1NCDH0048,"DURHAM 4.5 N, NC US",36.0448,-78.9222,107.3,2021-02,,,,,1.06,7.5,
US1NCDH0049,"DURHAM 4.5 E, NC US",35.9713,-78.8362,104.9,2021-02,,,,,1.34,7.75,
US1NCMC0028,"FRANKLIN 3.4 ESE, NC US",35.161778,-83.3258,676.7,2021-02,,,,,1.48,6.08,
USC00317079,"RALEIGH STATE UNIVERSITY, NC US",35.79082,-78.69875,121.9,2021-02,,,,,1.51,8.18,
US1NCMS0031,"MARSHALL 2.7 SSE, NC US",35.760837,-82.663604,644.7,2021-02,,,,,0.9,3.85,
US1NCMS0033,"MARSHALL 3.0 WSW, NC US",35.786494,-82.735847,620,2021-02,,,,,1,3.94,
US1NCAL0038,"BURLINGTON 3.9 NNW, NC US",36.133294,-79.482495,192.3,2021-02,,,,,1.06,6.61,
US1NCMS0029,"MARSHALL 1.7 W, NC US",35.79619,-82.71516,564.5,2021-02,,,,,,3.72,
US1NCMS0028,"MARS HILL 6.8 E, NC US",35.8251463,-82.4297128,839.1,2021-02,,,,,0.73,4.67,
US1NCAL0036,"BURLINGTON 1.6 NW, NC US",36.097261,-79.470131,188.1,2021-02,,,,,1.05,7.27,
US1NCHL0001,"ROANOKE RAPIDS 4.5 WNW, NC US",36.473,-77.729,40.8,2021-02,,,,,1.23,6.15,
US1NCCK0007,"MURPHY 15.5 WNW, NC US",35.140428,-84.296128,502.6,2021-02,,,,,1.37,6.46,
US1NCWK0181,"RALEIGH 3.2 WSW, NC US",35.81163,-78.71397,130.5,2021-02,,,,,,6.57,
USC00311538,"CASAR, NC US",35.5119,-81.6189,344.4,2021-02,0,1,0,1.5,,5.82,1.5
US1NCCW0057,"EDENTON 0.5 NE, NC US",36.06068,-76.5959,4,2021-02,,,,,1.5,7.65,
US1NCWK0182,"CARY 2.8 ESE, NC US",35.76152,-78.757327,132.3,2021-02,,,,,1.1,6.81,
US1NCWK0188,"WAKE FOREST 1.9 NNE, NC US",35.9972,-78.513,98.1,2021-02,,,,,1.1,7.74,
USC00311535,"CARY, NC US",35.71993,-78.78785,118.9,2021-02,,,,,0.99,6.38,
USC00319026,"WALLACE 1 SE, NC US",34.7315,-77.9831,10.7,2021-02,0,0,0,0,2.75,9.41,0
US1NCDH0036,"CHAPEL HILL 4.9 SSE, NC US",35.8683,-78.9926,85.6,2021-02,,,,,1.12,7.25,
US1NCDH0033,"CHAPEL HILL 2.5 SE, NC US",35.90353757,-79.00617912,84.1,2021-02,,,,,1.16,7.96,
US1NCDH0034,"DURHAM 5.2 NW, NC US",36.034668,-78.980595,154.2,2021-02,,,,,1.05,7.47,
US1NCSW0006,"WESSER 1.7 SE, NC US",35.31833,-83.5645,768.1,2021-02,,,,,1.66,7,
US1NCMS0020,"MARSHALL 7.5 WSW, NC US",35.770062,-82.812851,873.9,2021-02,,,,,1.1,4.86,
US1NCGN0007,"SNOW HILL 3.1 NNE, NC US",35.495357,-77.660428,29.3,2021-02,,,,,1.3,7.7,
US1NCMS0024,"HOT SPRINGS 5.6 SSW, NC US",35.8196,-82.87238333,615.4,2021-02,,,,,0.99,4.73,
US1NCMS0023,"HOT SPRINGS 9.6 SW, NC US",35.7865881,-82.9417695,1184.5,2021-02,,,,,0.91,5.07,
US1NCMS0018,"LEICESTER 6.5 WNW, NC US",35.6955,-82.7991,759.3,2021-02,,,,,1.04,4.33,
US1NCWK0190,"RALEIGH 4.7 N, NC US",35.889705,-78.654685,129.5,2021-02,,,,,1.02,7.86,
US1NCCM0021,"FAYETTEVILLE 5.1 WNW, NC US",35.106198,-78.978935,66.1,2021-02,,,,,1.34,7.32,
US1NCMS0016,"MARS HILL 2.2 SSE, NC US",35.801508,-82.530481,618.1,2021-02,,,,,0.95,3.81,
US1NCFR0004,"LEWISVILLE 4.2 N, NC US",36.154362,-80.405506,269.4,2021-02,,,,,1.07,5.45,
US1NCMS0019,"MARSHALL 15.1 NNE, NC US",36.00835037,-82.61821747,946.4,2021-02,,,,,0.9,5.11,
USC00313969,"HENDERSON 2 NNW, NC US",36.3488,-78.41193,146.3,2021-02,0,0,0,0,1.3,8.1,0
US1NCWK0198,"CARY 1.9 SE, NC US",35.76538849,-78.77250671,129.8,2021-02,,,,,1.26,8.37,
USC00310212,"APEX, NC US",35.74263,-78.83697,137.2,2021-02,,,,,1.12,7.49,
US1NCWK0199,"GARNER 1.6 SSE, NC US",35.672875,-78.617372,88.1,2021-02,,,,,1.28,8.56,
US1NCFR0007,"LEWISVILLE 0.5 W, NC US",36.093139,-80.411299,280.4,2021-02,,,,,1.09,6.04,
USC00312635,"EDENTON, NC US",36.0164,-76.5516,3,2021-02,0,0,0,0,1.64,7.58,0
US1NCCN0066,"RIVER BEND 0.8 ENE, NC US",35.076023,-77.139175,344.1,2021-02,,,,,2.19,9.22,
US1NCCN0067,"TRENT WOODS 1.0 NNE, NC US",35.090558,-77.089713,5.2,2021-02,,,,,1.81,8.55,
USC00312631,"EDEN, NC US",36.4742,-79.7433,206.7,2021-02,0,0,0,0,1.06,6.23,0
US1NCCN0061,"NEW BERN 4.6 SW, NC US",35.074647,-77.137348,2.1,2021-02,,,,,2.18,8.89,
US1NCDH0024,"DURHAM 4.4 NNW, NC US",36.03908539,-78.94777679,134.7,2021-02,,,,,1.03,6.28,
US1NCCV0026,"SHELBY 3.5 N, NC US",35.33964157,-81.5329895,268.5,2021-02,,,,,1.18,5.67,
US1NCCN0063,"NEW BERN 5.2 SE, NC US",35.064403,-77.01576,8.2,2021-02,,,,,1.81,8.07,
US1NCDH0026,"DURHAM 5.8 NW, NC US",36.0482,-78.9757,142.6,2021-02,,,,,1.05,7.79,
US1NCMT0006,"WILLIAMSTON 0.9 SSW, NC US",35.838559,-77.062034,22.3,2021-02,,,,,1.24,6.83,
US1NCED0018,"ROCKY MOUNT 3.1 SE, NC US",35.92876,-77.76839,33.8,2021-02,,,,,1.27,7.93,
US1NCMT0007,"JAMESVILLE 6.1 SW, NC US",35.74264,-76.9673,12.5,2021-02,,,,,1.6,8.9,
US1NCCV0023,"SHELBY 1.7 NNW, NC US",35.31206894,-81.55135345,261.2,2021-02,,,,,1.15,5.59,
US1NCDH0022,"DURHAM 6.8 NNW, NC US",36.07097626,-78.96331024,117.7,2021-02,,,,,1,7.23,
US1NCCV0024,"MOORESBORO 6.0 S, NC US",35.213388,-81.708333,216.4,2021-02,,,,,1.18,5.8,
USC00317097,"RANDLEMAN, NC US",35.8222,-79.7917,246.9,2021-02,,,,,1.4,6.62,
US1NCED0011,"TARBORO 5.9 SE, NC US",35.839078,-77.494955,13.4,2021-02,,,,,1.34,7.18,
US1NCMS0012,"MARSHALL 4.8 SW, NC US",35.75637817,-82.75304413,678.2,2021-02,,,,,1.07,4.17,
US1NCMS0005,"MARSHALL 13.6 NNW, NC US",35.98208,-82.76719,635.5,2021-02,,3,,8.5,1.06,5.11,15.4
USC00315913,"MOUNT HOLLY 4 NE, NC US",35.3338,-80.9868,185.9,2021-02,,,,,0.99,5.4,
USC00313976,"HENDERSONVILLE 1 NE, NC US",35.3297,-82.4491,658.4,2021-02,2,1,4,3.8,0.84,5.16,3.8
US1NCCV0029,"SHELBY 6.9 NNE, NC US",35.373736,-81.476627,255.4,2021-02,,,,,1.06,5.38,
USC00313971,"HENDERSON 4 NNE, NC US",36.3647,-78.3881,152.4,2021-02,,,,,0.84,6.67,
US1NCMT0010,"ROBERSONVILLE 0.0 NNW, NC US",35.825368,-77.253325,21.9,2021-02,,,,,1.25,7.81,
US1NCMT0014,"WILLIAMSTON 8.9 SSE, NC US",35.72537994,-77.02729034,11,2021-02,,,,,1.83,9.14,
US1NCCN0074,"NEW BERN 2.6 SW, NC US",35.08924484,-77.10475159,4.6,2021-02,,,,,1.95,9.19,
US1NCCV0038,"PATTERSON SPRINGS 0.4 SW, NC US",35.228496,-81.523706,272.5,2021-02,,,,,1.26,6.62,
USR0000NBFT,"BEAUFORT NORTH CAROLINA, NC US",35.5206,-76.9314,7.6,2021-02,,,,,,,
US1NCCM0034,"HOPE MILLS 8.0 SSE, NC US",34.87271667,-78.88165,46.3,2021-02,,,,,2.75,9.56,
US1NCCM0042,"HOPE MILLS 6.3 SE, NC US",34.910057,-78.874403,48.5,2021-02,,,,,2.12,7.44,
USC00315923,"MOUNT MITCHELL, NC US",35.7585,-82.2711,1902,2021-02,,,,,1.1,5.25,
USC00313503,"GOLDSBORO AG 1 N, NC US",35.42433,-77.99872,33.2,2021-02,,,,,1.55,7.54,
US1NCDH0006,"DURHAM 1.2 NW, NC US",35.9914,-78.931,113.1,2021-02,,,,,1.27,7.47,
US1NCCN0089,"TRENT WOODS 1.2 ENE, NC US",35.087335,-77.078864,4,2021-02,,,,,1.81,8.77,
US1NCLE0009,"SANFORD 6.0 N, NC US",35.56315,-79.195,97.5,2021-02,,,,,1.05,7.52,
US1NCCN0086,"NEW BERN 1.5 NW, NC US",35.134061,-77.098194,7,2021-02,,,,,2.31,9.43,
US1NCON0086,"SWANSBORO 1.4 N, NC US",34.710851,-77.129041,9.1,2021-02,,,,,1.54,8.07,
US1NCLE0003,"SANFORD 6.6 S, NC US",35.383124,-79.163226,121,2021-02,,,,,1.13,6.69,
US1NCYN0007,"BALD CREEK 1.2 NW, NC US",35.9232,-82.4388,862.9,2021-02,6,2,3,3,1.02,5.13,5.8
US1NCYN0006,"BURNSVILLE 7.0 W, NC US",35.9126,-82.423,785.8,2021-02,,,,,0.96,4.83,
US1NCBC0085,"ASHEVILLE 6.3 NW, NC US",35.6362,-82.6302,647.7,2021-02,,,,,0.75,3.28,
US1NCBC0087,"BAT CAVE 1.9 N, NC US",35.479675,-82.284756,624.2,2021-02,,,,,0.72,4.36,
USC00315930,"MOUNT OLIVE 6 SE, NC US",35.13763,-77.98908,49.4,2021-02,0,0,0,0,1.21,7.75,0
US1NCBC0091,"CANDLER 1.3 N, NC US",35.55463,-82.692977,677.9,2021-02,1,1,2,1.8,0.77,3.42,1.9
US1NCRN0038,"ASHEBORO 5.0 WSW, NC US",35.699342,-79.89746,170.1,2021-02,,,,,0.82,6.94,
USR0000NJCY,"JACKSON CO NORTH CAROLINA, NC US",35.3167,-82.2,853.4,2021-02,,,,,,,
US1NCYN0014,"BURNSVILLE 6.6 SSW, NC US",35.824433,-82.329157,1010.1,2021-02,,,,,,4.21,
US1NCYN0012,"BURNSVILLE 6.4 S, NC US",35.82636,-82.28427,952.8,2021-02,,,,,,3.98,
US1NCLR0010,"KINSTON 5.1 WNW, NC US",35.30070037,-77.67621182,30.8,2021-02,,,,,1.67,7.56,
US1NCYN0013,"BURNSVILLE 5.9 SSW, NC US",35.838633,-82.341433,1163.1,2021-02,,,,,0.93,4.86,
US1NCWR0007,"NORLINA 5.0 N, NC US",36.517397,-78.192143,90.8,2021-02,,,,,1.04,6.87,
US1NCLR0004,"KINSTON 3.7 WNW, NC US",35.30044961,-77.64779664,36.9,2021-02,,,,,,8.02,
US1NCLR0007,"KINSTON 4.7 ESE, NC US",35.2460359,-77.515621,10.7,2021-02,,,,,1.94,7.27,
USC00315945,"MOUNT PLEASANT, NC US",35.41179,-80.43104,219.5,2021-02,0,0,0,0,0.73,5.87,0
US1NCBC0099,"ASHEVILLE 4.1 ESE, NC US",35.556599,-82.479347,675.4,2021-02,,,,,0.8,4.25,
US1NCBC0094,"SWANNANOA 3.0 W, NC US",35.603096,-82.445701,681.2,2021-02,1,1,1,1.2,0.72,2.72,1.7
US1NCBC0095,"WEAVERVILLE 0.6 W, NC US",35.697933,-82.568916,661.7,2021-02,,,,,0.75,3.39,
US1NCWY0001,"GOLDSBORO 4.4 E, NC US",35.3724,-77.89842,40.8,2021-02,,0,,0,1.58,7.46,0
USC00314860,"LAURINBURG, NC US",34.7502,-79.46628,64,2021-02,0,0,0,0,1.32,5.89,0
US1NCWK0149,"KNIGHTDALE 4.7 SSE, NC US",35.726918,-78.464817,78.9,2021-02,,,,,1.32,8.39,
US1NCWY0002,"PIKEVILLE 6.2 WSW, NC US",35.470358,-78.08919,35.1,2021-02,,,,,1.63,8.32,
USR0000NPOC,"POCOSIN LAKES NORTH CAROLINA, NC US",35.7469,-76.5108,1.8,2021-02,,,,,,,
US1NCYN0004,"BURNSVILLE 6.5 SSW, NC US",35.829683,-82.3285,947.9,2021-02,,2,,2,0.81,4.85,4.2
US1NCYN0001,"BURNSVILLE 4.6 N, NC US",35.981972,-82.285219,792.2,2021-02,,,,,0.78,4.62,
US1NCJH0020,"CLAYTON 4.6 ESE, NC US",35.6169,-78.3846,93,2021-02,,,,,1.24,8.36,
US1NCJH0022,"MIDDLESEX 5.5 SSW, NC US",35.721802,-78.258338,83.2,2021-02,,,,,1.47,8.84,
US1NCSR0002,"DOBSON 2.3 SE, NC US",36.366946,-80.692741,348.7,2021-02,,,,,0.95,4.69,
USC00316805,"PISGAH FOREST 3 NE, NC US",35.2719,-82.6475,667.5,2021-02,1,1,3,3.5,1.01,6.14,3.5
US1NCBC0066,"WEAVERVILLE 5.6 E, NC US",35.7077,-82.4592,780.9,2021-02,3,2,3,2.9,0.77,3.28,5
US1NCSR0004,"MOUNT AIRY 4.3 W, NC US",36.494052,-80.689644,389.5,2021-02,,,,,0.97,5,
USC00312200,"CULLOWHEE, NC US",35.3116,-83.1747,668.1,2021-02,1,1,2,1.5,1.16,5.24,1.5
USR0000NLEX,"LEXINGTON NORTH CAROLINA, NC US",35.7922,-80.312,228.6,2021-02,,,,,,,
US1NCJH0057,"GARNER 9.8 SE, NC US",35.5838623,-78.51712036,70.4,2021-02,,,,,1.09,7.69,
USR0000NTUR,"TURNBULL CREEK NORTH CAROLINA, NC US",34.6831,-78.5817,30.5,2021-02,,,,,,,
USR0000NTUS,"TUSQUITEE NORTH CAROLINA, NC US",35.04,-84.06,698.9,2021-02,,,,,,,
US1NCWK0174,"RALEIGH 1.7 N, NC US",35.84654999,-78.66304016,75.9,2021-02,,,,,,7.02,
USC00313784,"HAMLET, NC US",34.88634,-79.69238,106.7,2021-02,,,,,1.2,6.23,
US1NCLR0022,"KINSTON 7.0 SW, NC US",35.1919,-77.6598,24.1,2021-02,,,,,1.8,7.91,
US1NCLR0023,"KINSTON 4.4 WNW, NC US",35.288973,-77.666513,31.7,2021-02,,,,,1.87,7.33,
US1NCJH0046,"CLAYTON 6.8 ESE, NC US",35.61936944,-78.341075,51.2,2021-02,,,,,1.21,7.92,
US1NCJH0080,"KENLY 4.2 SSE, NC US",35.536,-78.1004,66.8,2021-02,,,,,1.34,8.08,
US1NCHR0026,"FUQUAY VARINA 6.1 SSW, NC US",35.50411987,-78.81704712,105.2,2021-02,,,,,1.17,7.93,
US1NCWK0100,"RALEIGH 6.9 N, NC US",35.921419,-78.67411,109.4,2021-02,,,,,,5.85,
US1NCWK0340,"WAKE FOREST 2.6 SE, NC US",35.9433,-78.4898,,2021-02,,,,,1.03,8.06,
US1NCUN0022,"MONROE 7.2 SW, NC US",34.92194697,-80.64102776,208.2,2021-02,,,,,0.8,6.57,
US1NCWK0345,"RALEIGH 2.5 E, NC US",35.827478,-78.615493,90.2,2021-02,,,,,1,7.54,
US1NCWK0346,"HOLLY SPRINGS 3.0 SW, NC US",35.6278,-78.8767,93.9,2021-02,,,,,1.03,6.6,
USC00310286,"ASHEBORO 2 W, NC US",35.70838,-79.83811,265.2,2021-02,,,,,0.99,6.84,
USC00313555,"GRAHAM 2 ENE, NC US",36.0503,-79.3728,201.2,2021-02,,,,,0.95,7.34,
US1NCWY0033,"GOLDSBORO 7.1 WSW, NC US",35.336799,-78.093954,53.9,2021-02,,,,,1.48,7.45,
US1NCSC0009,"LAURINBURG 4.3 SSE, NC US",34.704712,-79.453671,53.6,2021-02,,,,,1.86,7.36,
US1NCWK0336,"FUQUAY VARINA 2.9 NNE, NC US",35.6305,-78.7756,135.6,2021-02,,,,,1.17,8.03,
USR0000NCRN,"CROATAN NORTH CAROLINA, NC US",34.7833,-76.8667,6.1,2021-02,,,,,,,
US1NCUN0017,"WAXHAW 4.1 ENE, NC US",34.944722,-80.674722,196.9,2021-02,,,,,0.84,6.7,
US1NCGL0008,"GREENSBORO 5.3 NNE, NC US",36.1515,-79.7968,242.3,2021-02,,,,,1.17,7.47,
US1NCGL0007,"OAK RIDGE 2.3 SSW, NC US",36.140393,-80.000353,264.3,2021-02,,,,,1.14,7.2,
US1NCOR0006,"HILLSBOROUGH 7.4 NW, NC US",36.1515,-79.1908,202.4,2021-02,,,,,0.96,7.04,
US1NCOR0001,"HILLSBOROUGH 4.0 SSW, NC US",36.016389,-79.128091,226.2,2021-02,,,,,0.85,6.34,
US1NCSR0012,"PILOT MOUNTAIN 0.3 W, NC US",36.384661,-80.476946,330.4,2021-02,,,,,1.18,5.65,
US1NCOR0002,"EFLAND 4.0 NNW, NC US",36.138333,-79.180556,210.9,2021-02,,,,,1,7.06,
US1NCCN0108,"NEW BERN 7.5 ESE, NC US",35.077996,-76.955815,1.8,2021-02,,,,,1.78,8.2,
US1NCMK0088,"CHARLOTTE 7.1 S, NC US",35.095157,-80.831962,179.2,2021-02,,,,,0.64,5.42,
US1NCCN0102,"NEW BERN 4.9 SW, NC US",35.07419,-77.14574,1.5,2021-02,,,,,2.02,8.9,
USC00317924,"SILER CITY 2 N, NC US",35.7609,-79.46255,185.9,2021-02,,,,,0.85,4.3,
US1NCCN0105,"NEW BERN 7.7 ESE, NC US",35.0691243,-76.9585455,2.7,2021-02,,,,,1.6,7.56,
US1NCWK0351,"RALEIGH 8.6 NNE, NC US",35.941947,-78.616944,110.6,2021-02,,,,,1.04,7.78,
USC00312238,"DANBURY, NC US",36.4301,-80.1789,310.6,2021-02,1,1,1,1.2,1.1,5.7,1.4
USC00315743,"MOCKSVILLE 5 SE, NC US",35.84219,-80.49777,207.3,2021-02,0,0,0,0.5,1.04,6.59,0.5
US1NCWK0115,"RALEIGH 2.7 NNE, NC US",35.856224,-78.635964,118.9,2021-02,,,,,0.96,7.04,
USC00313566,"GRANDFATHER MOUNTAIN MUSEUM, NC US",36.08952,-81.83565,1425.9,2021-02,10,3,4,2.7,0.93,5.08,6.7
USC00313565,"GRANDFATHER MOUNTAIN, NC US",36.0963,-81.8311,1609.3,2021-02,,,,,0.81,3.85,
US1NCWK0105,"CARY 2.7 S, NC US",35.744152,-78.806075,125.6,2021-02,,,,,1.36,8.51,
US1NCWK0106,"CARY 0.5 NW, NC US",35.796525,-78.787353,137.5,2021-02,,,,,1.08,7.78,
US1NCUN0028,"MONROE 7.1 SW, NC US",34.91487122,-80.63103485,211.2,2021-02,,,,,0.8,5.75,
US1NCUN0027,"WEDDINGTON 1.9 WSW, NC US",35.024841,-80.771545,203.3,2021-02,,,,,0.87,5.93,
US1NCJH0063,"CLAYTON 3.3 ENE, NC US",35.672634,-78.409744,81.1,2021-02,,,,,1.31,8.36,
US1NCJH0065,"FOUR OAKS 5.7 NW, NC US",35.51073837,-78.49013519,58.5,2021-02,,,,,1.52,8.66,
US1NCMK0094,"CHARLOTTE 4.1 SE, NC US",35.152125,-80.78645,199.9,2021-02,,,,,0.84,6.68,
US1NCMK0092,"CHARLOTTE 3.9 WNW, NC US",35.21841,-80.89898,214.9,2021-02,,,,,1.03,6.17,
US1NCMK0097,"CORNELIUS 1.0 WNW, NC US",35.488659,-80.884551,239,2021-02,,,,,1.13,6.5,
US1NCMK0098,"PAW CREEK 1.2 N, NC US",35.29506,-80.93317,220.1,2021-02,,,,,0.91,6.01,
US1NCMK0095,"DAVIDSON 0.4 SE, NC US",35.49434,-80.84195,245.1,2021-02,,,,,1.06,5.67,
US1NCMK0099,"CHARLOTTE 3.2 ENE, NC US",35.20874,-80.78026,224.9,2021-02,,,,,,5.76,
US1NCHR0007,"LILLINGTON 2.0 W, NC US",35.4028,-78.8508,103.9,2021-02,0,0,0,0,1.39,8.02,0
USC00315996,"MURFREESBORO, NC US",36.4521,-77.0803,30.5,2021-02,,,,,1.44,7.78,
US1NCHR0002,"COATS 0.7 W, NC US",35.4049,-78.681,75.9,2021-02,,0,,0,1.42,8.46,0
US1NCWY0017,"KENLY 4.9 SE, NC US",35.54779053,-78.057724,40.8,2021-02,,,,,1.4,7.93,
US1NCJH0095,"CLAYTON 1.3 SSW, NC US",35.62984,-78.46674,85.3,2021-02,,,,,1.18,7.9,
USC00313106,"FLETCHER 3 W, NC US",35.4267,-82.557,630.9,2021-02,,,,,0.93,4.73,
US1NCHR0017,"CAMERON 7.6 E, NC US",35.32866667,-79.11633333,84.7,2021-02,,,,,1.27,7.64,
USC00311165,"BRYSON CITY 4, NC US",35.4467,-83.4623,605,2021-02,2,2,1,1.6,1.52,6.93,2.9
US1NCUN0010,"MONROE 9.2 N, NC US",35.1187,-80.51475,202.4,2021-02,,,,,0.92,6.43,
USC00316853,"PLYMOUTH 5 E, NC US",35.8723,-76.6592,6.1,2021-02,0,0,0,0,1.58,8.01,0
USC00314675,"KING, NC US",36.2838,-80.3624,268.2,2021-02,1,1,1,1.1,1.11,5.96,1.1
US1NCUN0001,"MONROE 2.4 N, NC US",35.020746,-80.53429,175,2021-02,,,,,0.82,6.67,
USC00315771,"MONROE 2 SE, NC US",34.9797,-80.5233,167.6,2021-02,0,0,0,0,,5.95,0
US1NCJH0084,"CLAYTON 5.5 S, NC US",35.568015,-78.449653,64,2021-02,,,,,1.21,8.33,
US1NCUN0009,"WAXHAW 4.0 NNE, NC US",34.978814,-80.716532,182.6,2021-02,,,,,0.73,6.09,
US1NCJH0089,"SELMA 2.3 N, NC US",35.570658,-78.286922,59.4,2021-02,,,,,1.25,8.3,
US1NCBC0005,"ASHEVILLE 2.1 NNW, NC US",35.6025,-82.5602,645.6,2021-02,,,,,0.89,3.83,
US1NCOR0038,"CHAPEL HILL 4.3 WSW, NC US",35.911279,-79.11436,148.4,2021-02,,,,,1.11,6.65,
US1NCOR0039,"DURHAM 7.2 WNW, NC US",36.035913,-79.024597,156.4,2021-02,,,,,1.03,7.62,
US1NCBC0001,"ASHEVILLE 5.6 NNW, NC US",35.6534,-82.5709,777.2,2021-02,,,,,0.7,3.42,
US1NCBC0004,"FAIRVIEW 3.8 ENE, NC US",35.546,-82.343,813.2,2021-02,,,,,0.97,4.42,
USC00314689,"KINSTON AG RESEARCH, NC US",35.2975,-77.5722,18.3,2021-02,0,0,0,0,1.88,8.06,0
USC00313356,"GASTONIA, NC US",35.2671,-81.1436,213.4,2021-02,0,0,0,0.3,1.35,6.38,0.3
USC00310090,"ALBEMARLE, NC US",35.3992,-80.1994,185.9,2021-02,,,,,0.9,6.2,
US1NCOR0048,"CHAPEL HILL 4.7 SW, NC US",35.87661,-79.09737,126.8,2021-02,,,,,1.04,7.46,
US1NCOR0045,"CHAPEL HILL 9.4 W, NC US",35.908102,-79.20669,165.8,2021-02,,0,,0,0.89,6.78,0
US1NCBC0014,"LEICESTER 2 SE, NC US",35.62631944,-82.67633333,672.1,2021-02,,1,,1.4,0.81,3.13,2.2
US1NCOR0044,"HILLSBOROUGH 5.6 NNW, NC US",36.149173,-79.133016,205.7,2021-02,,,,,1.17,6.96,
US1NCCH0004,"GOLDSTON 3.8 N, NC US",35.648565,-79.33607,173.1,2021-02,,,,,1,7.41,
US1NCOR0041,"HILLSBOROUGH 1.5 NE, NC US",36.084995,-79.081492,176.8,2021-02,,,,,1.07,7.19,
USC00314456,"JACKSON, NC US",36.39652,-77.42397,37.5,2021-02,1,1,2,3.2,1.55,8.14,3.2
US1NCWK0313,"MORRISVILLE 1.4 NW, NC US",35.84886,-78.84956,102.7,2021-02,,,,,1.02,7.95,
USC00314464,"JACKSON SPRINGS 5 WNW, NC US",35.18355,-79.67736,222.5,2021-02,,,,,1.16,6.97,
US1NCWK0303,"WAKE FOREST 2.4 ENE, NC US",35.988055,-78.483333,114.9,2021-02,,0,,0,1.04,7.73,0
US1NCCH0006,"SILER CITY 2.7 SSW, NC US",35.68886,-79.48052,206,2021-02,,,,,0.8,6.65,
US1NCGL0041,"GREENSBORO 7.1 S, NC US",35.976108,-79.836675,255.1,2021-02,,,,,1.11,7.28,
US1NCGL0016,"BROWNS SUMMIT 3.4 NW, NC US",36.2467,-79.7572,238.4,2021-02,,,,,1.12,6.66,
US1NCWK0320,"HOLLY SPRINGS 1.7 WSW, NC US",35.642376,-78.861934,119.2,2021-02,,,,,1.05,7.49,
USR0000NFBR,"FORT BRAGG NORTH CAROLINA, NC US",35.1397,-79.0644,143,2021-02,,,,,,,
US1NCHR0045,"ANGIER 0.7 S, NC US",35.4999131,-78.7392294,88.1,2021-02,,,,,2.1,10.03,
US1NCWK0316,"RALEIGH 6.8 NNW, NC US",35.9085,-78.7177,147.5,2021-02,,,,,1.02,7.29,
US1NCWK0317,"RALEIGH 0.9 WNW, NC US",35.82547,-78.67519,101.2,2021-02,,,,,1.1,7.57,
US1NCHR0042,"LILLINGTON 11.0 WSW, NC US",35.32299,-78.98909,136.2,2021-02,,,,,1.15,6.69,
US1NCHR0043,"LILLINGTON 0.7 WNW, NC US",35.4029,-78.8262,69.2,2021-02,,,,,1.24,7.5,
US1NCUN0034,"WAXHAW 5.1 S, NC US",34.85003,-80.7475,173.1,2021-02,,,,,,5.91,
USC00314471,"JACKSONVILLE EOC, NC US",34.7965,-77.401,5.2,2021-02,0,,0,,2.2,8.13,
US1NCGL0013,"BROWNS SUMMIT 3.2 NW, NC US",36.2455,-79.7543,252.4,2021-02,,,,,1.13,7.07,
US1NCOR0027,"HILLSBOROUGH 1.8 S, NC US",36.045094,-79.101517,182.9,2021-02,,,,,0.87,7.13,
USR0000NFAI,"FAIRFIELD NORTH CAROLINA, NC US",35.5417,-76.2231,3,2021-02,,,,,,,
US1NCWK0328,"RALEIGH 5.8 NW, NC US",35.8703,-78.74275,133.2,2021-02,,,,,1.05,7.57,
USC00313152,"FOREST CITY 8 W, NC US",35.3125,-81.9891,258.8,2021-02,1,1,2,2,0.83,4.94,2
USC00316422,"RICHLANDS, NC US",34.925,-77.5113,6.1,2021-02,0,0,0,0,3.56,10.32,0
US1NCWK0326,"APEX 2.9 NW, NC US",35.753501,-78.884365,110,2021-02,,,,,1.06,7.56,
US1NCBC0045,"ASHEVILLE 2.9 N, NC US",35.616229,-82.550453,660.2,2021-02,2,2,2,2,0.84,3.5,3.1
US1NCPD0022,"BURGAW 0.3 NE, NC US",34.554,-77.9229,12.2,2021-02,,,,,1.78,7.19,
US1NCBC0041,"ARDEN 1.6 ENE, NC US",35.47906,-82.49238,694.6,2021-02,,,,,0.91,4.36,
US1NCCH0036,"APEX 7.8 NW, NC US",35.8149,-78.9297,96.9,2021-02,,,,,0.94,7.39,
US1NCBC0043,"ASHEVILLE 8.1 NNW, NC US",35.684553,-82.595285,637.9,2021-02,,,,,0.72,3.44,
US1NCCH0035,"PITTSBORO 8.2 N, NC US",35.836262,-79.146446,143.6,2021-02,,,,,0.98,6.63,
USC00317516,"ROXBORO 7 ESE, NC US",36.3464,-78.8858,216.4,2021-02,,,,,1.19,5.4,
USC00314496,"JEFFERSON 2 E, NC US",36.41747,-81.42964,840.9,2021-02,6,1,4,2,0.8,3.69,2
USC00315340,"MARION, NC US",35.6847,-82.0084,429.8,2021-02,1,1,1,1.5,0.9,4.63,1.5
USW00013723,"GREENSBORO AIRPORT, NC US",36.0969,-79.9432,271.3,2021-02,,0,,0.5,0.97,6.24,0.5
USW00013722,"RALEIGH AIRPORT, NC US",35.8923,-78.7819,126.8,2021-02,,0,,0,0.83,6.18,0
US1NCPD0017,"HAMPSTEAD 0.3 NW, NC US",34.3708219,-77.7139119,15.5,2021-02,,,,,1.59,7.94,
US1NCPD0013,"CASTLE HAYNE 1.6 NNW, NC US",34.376792,-77.914445,4.3,2021-02,,,,,,7.54,
USR0000TCHE,"CHEROKEE TENNESSEE, TN US",35.6197,-83.2069,1036.3,2021-02,,,,,,,
US1NCCH0043,"PITTSBORO 7.7 N, NC US",35.830134,-79.177921,121.9,2021-02,,,,,1.2,6.84,
US1NCBC0051,"ASHEVILLE 1.2 NNW, NC US",35.5909018,-82.554861,650.4,2021-02,1,1,1,1,0.78,3.55,1.6
US1NCCH0041,"PITTSBORO 3.3 NNW, NC US",35.766312,-79.188988,131.1,2021-02,0,0,0,0,1,6.39,0
USC00316676,"PERRYTOWN, NC US",35.0556,-77.0859,8.5,2021-02,0,0,0,0,1.92,8.9,0
USC00316686,"PFAFFTOWN, NC US",36.1558,-80.3699,289.6,2021-02,,,,,1.46,5.56,
USC00319704,"YANCEYVILLE 4 SE, NC US",36.3773,-79.25502,193.5,2021-02,0,1,0,1.3,1.48,7.39,1.3
US1NCCH0049,"CHAPEL HILL 6.8 S, NC US",35.829906,-79.060379,143.6,2021-02,,,,,1.09,7.39,
USC00314260,"HOT SPRINGS, NC US",35.89536,-82.8313,410,2021-02,3,1,4,4.5,0.91,4.61,5.5
US1NCBC0028,"ASHEVILLE 4.2 ESE, NC US",35.55,-82.48,697.1,2021-02,,1,,1.8,0.72,3.82,2.3
US1NCOR0058,"CHAPEL HILL 2.9 WNW, NC US",35.9468,-79.0859,144.2,2021-02,,,,,1.05,6.61,
US1NCOR0056,"CHAPEL HILL 10.9 WSW, NC US",35.8904,-79.2293,153.3,2021-02,,,,,0.81,4.87,
US1NCOR0055,"CHAPEL HILL 2.2 N, NC US",35.959308,-79.036645,96.9,2021-02,,,,,1.03,6.5,
US1NCCH0015,"PITTSBORO 5.0 NE, NC US",35.779859,-79.124435,167.3,2021-02,,,,,1.14,8.05,
US1NCCY0003,"HAYESVILLE 5.2 E, NC US",35.054,-83.728,714.1,2021-02,,,,,1.34,6.73,
US1NCBC0022,"SKYLAND 1.0 W, NC US",35.48624431,-82.53532112,670.6,2021-02,,,,,,4.26,
US1NCOR0051,"CHAPEL HILL 2.5 N, NC US",35.964391,-79.039699,152.1,2021-02,0,0,0,0,1.07,7.3,0
USC00315116,"LONGWOOD, NC US",34.0106,-78.5464,12.2,2021-02,,,,,1.51,6.7,
USC00315356,"MARSHALL, NC US",35.80336,-82.66573,585.2,2021-02,5,3,8,7,0.91,4.22,10
US1NCRN0013,"ASHEBORO 10.9 S, NC US",35.5645049,-79.777743,223.7,2021-02,,,,,,5.43,
USC00315123,"LOUISBURG, NC US",36.10259,-78.30418,79.2,2021-02,,,,,1.11,6.75,
US1NCJH0015,"WENDELL 6.5 S, NC US",35.689161,-78.3482,83.8,2021-02,,,,,1.36,8.3,
USW00093807,"WINSTON SALEM REYNOLDS AIRPORT, NC US",36.13361,-80.22222,295.7,2021-02,,,,,0.89,4.8,
US1NCCH0017,"PITTSBORO 6.2 NE, NC US",35.791449,-79.107356,112.5,2021-02,,,,,1.15,7.09,
US1NCCH0016,"APEX 9.2 WNW, NC US",35.77207184,-78.99810028,89.6,2021-02,,,,,1,7.02,
US1NCGL0055,"SUMMERFIELD 2.8 NW, NC US",36.233675,-79.92684,268.2,2021-02,,,,,0.98,6.03,
US1NCGL0054,"SUMMERFIELD 2.2 SE, NC US",36.18175,-79.86454,255.1,2021-02,,,,,1.13,7.5,
US1NCJH0014,"CLAYTON 1.3 SSW, NC US",35.631653,-78.470186,91.1,2021-02,,,,,1.19,8.34,
USR0000NRUT,"RUTHERFORD CO NORTH CAROLI, NC US",35.4286,-81.9394,321.9,2021-02,,,,,,,
US1NCPD0031,"HAMPSTEAD 4.1 WNW, NC US",34.3866,-77.7785,4.6,2021-02,,,,,1.39,7.78,
US1NCCH0026,"SILER CITY 7.2 NE, NC US",35.806955,-79.382361,199.6,2021-02,,,,,0.68,4.98,
US1NCOR0063,"CHAPEL HILL 7.2 WSW, NC US",35.87566,-79.1531,206.3,2021-02,,,,,1.23,5.89,
US1NCCH0025,"CARY 7.8 WNW, NC US",35.84159088,-78.9177475,98.1,2021-02,,,,,0.96,7.32,
US1NCCH0024,"SANFORD 10.0 N, NC US",35.620648,-79.201603,100.6,2021-02,,,,,1,7.42,
US1NCCH0023,"PITTSBORO 5.4 WSW, NC US",35.69876862,-79.2668457,131.7,2021-02,,,,,1,7.52,
US1NCOR0062,"CHAPEL HILL 7.2 W, NC US",35.9381,-79.16925,167.3,2021-02,,,,,0.84,6.46,
US1NCOR0060,"HILLSBOROUGH 2.8 SSW, NC US",36.03512,-79.124232,212.4,2021-02,,,,,0.82,6.95,
US1NCCH0020,"CARY 7.5 WNW, NC US",35.837442,-78.915434,84.1,2021-02,,,,,0.98,7.76,
US1NCGL0062,"JAMESTOWN 3.0 N, NC US",36.038071,-79.926262,260.6,2021-02,,,,,1.13,6.69,
US1NCCH0029,"PITTSBORO 3.5 NW, NC US",35.748848,-79.226081,150.9,2021-02,,,,,1.1,7.49,
US1NCCH0028,"SILER CITY 0.6 E, NC US",35.723943,-79.451757,173.7,2021-02,,,,,0.83,6.57,
US1NCGL0060,"HIGH POINT 1.9 NW, NC US",36.000759,-80.020974,263.3,2021-02,,,,,1.01,6.59,
US1NCPD0028,"TOPSAIL BEACH 2.1 W, NC US",34.378783,-77.669907,8.2,2021-02,,,,,1.57,8.23,
US1NCCC0014,"COROLLA 5.8 SSE, NC US",36.299,-75.803,2.7,2019-02,,,,,0.78,4.15,
USC00317319,"ROANOKE RAPIDS, NC US",36.47893,-77.67141,64,2019-02,,,,,1.67,5.78,
US1NCCC0015,"GRANDY 0.6 E, NC US",36.242784,-75.867977,0.6,2019-02,,,,,1.37,4.39,
USC00314055,"HIGHLANDS, NC US",35.05646,-83.19822,1173.5,2019-02,0,0,0,0,2.53,15.04,0
US1NCHW0058,"CRABTREE 1.7 ENE, NC US",35.60944,-82.91278,864.4,2019-02,,,,,1.04,6.33,
USW00013766,"MANTEO AIRPORT, NC US",35.9173,-75.7,4,2019-02,0,,0,,1.5,4.7,
US1NCCR0045,"MOREHEAD CITY 2.4 WNW, NC US",34.734492,-76.772506,4.9,2019-02,,,,,3.48,6.28,
US1NCCR0049,"EMERALD ISLE 2.3 WSW, NC US",34.65437114,-77.06712574,5.2,2019-02,,,,,1.33,3.15,
USC00316236,"NORTH FORK 2, NC US",35.66308,-82.34446,755.9,2019-02,0,0,0,0,0.81,5.85,0
USR0000NRCK,"ROCKINGHAM NORTH CAROLINA, NC US",34.96,-79.69,121.9,2019-02,,,,,,,
USC00316001,"MURPHY 4 ESE, NC US",35.0714,-83.9684,487.7,2019-02,0,0,0,0,1.82,9.88,0
USC00314063,"HIGH POINT, NC US",35.96743,-79.97086,274.3,2019-02,0,0,0,0,1.28,6.16,0
US1NCML0001,"BAKERSVILLE 5.4 N, NC US",36.092,-82.175,1168,2019-02,,,,,1.26,6.6,
US1NCML0002,"BAKERSVILLE 2.5 SE, NC US",35.989,-82.128,893.1,2019-02,1,0,1,0.5,1.15,5.37,0.5
US1NCDP0025,"ALBERTSON 1.2 WNW, NC US",35.12012,-77.83897,30.2,2019-02,,,,,0.77,2.8,
US1NCHW0048,"WAYNESVILLE 4.1 NNW, NC US",35.53742981,-83.03031921,824.8,2019-02,,,,,1.9,10.36,
USW00013776,"LUMBERTON REGIONAL AIRPORT, NC US",34.608,-79.0591,36.9,2019-02,,,,,0.36,1.81,
US1NCCR0012,"MOREHEAD CITY 0.6 NW, NC US",34.73,-76.74,4,2019-02,,,,,3.03,5.5,
US1NCFK0007,"BUNN 1.2 N, NC US",35.976361,-78.252902,82.9,2019-02,,,,,,5.09,
US1NCCR0016,"MOREHEAD CITY 6.0 WNW, NC US",34.730195,-76.831405,10.1,2019-02,,,,,1.76,3.46,
USC00316256,"NORTH WILKESBORO, NC US",36.1638,-81.1536,341.4,2019-02,0,0,0,0.1,1.32,5.75,0.1
USC00317344,"ROBBINSVILLE AG 5 NE, NC US",35.3763,-83.70013,710.2,2019-02,0,0,0,0,1.99,12.09,0
US1NCDP0017,"ROSE HILL 0.1 NNW, NC US",34.82587,-78.02864,30.2,2019-02,,,,,0.54,2.34,
US1NCML0011,"SPRUCE PINE 3.7 ESE, NC US",35.88905,-82.012514,833.9,2019-02,,,,,0.81,4.57,
US1NCRB0017,"LUMBERTON 8.6 SSE, NC US",34.512735,-78.975122,33.5,2019-02,,,,,0.56,2.07,
US1NCML0014,"SPRUCE PINE 4.5 WSW, NC US",35.900646,-82.147713,782.4,2019-02,,,,,0.85,5.57,
US1NCAG0001,"SPARTA 3.5 SSW, NC US",36.458975,-81.152517,946.1,2019-02,1,0,2,0,1.47,6.48,0
US1NCBF0029,"WASHINGTON 1.0 SSW, NC US",35.5428,-77.0587,1.2,2019-02,,,,,1.38,4.39,
US1NCCR0020,"HARKERS ISLAND 3.2 NE, NC US",34.7315,-76.51765,2.1,2019-02,,,,,4.65,7.6,
USW00013748,"WILMINGTON INTERNATIONAL AIRPORT, NC US",34.2675,-77.8997,10.1,2019-02,0,0,0,0,0.29,1.01,0
US1NCHW0061,"MAGGIE VALLEY 6.2 NNE, NC US",35.5982,-83.0455,988.2,2019-02,,,,,1.69,8.79,
USC00315177,"LUMBERTON, NC US",34.6269,-79.025,34.1,2019-02,,,,,0.3,1.21,
USC00315175,"LUMBER RIVER STATE PARK, NC US",34.3902,-79.0022,29.3,2019-02,,,,,0.5,1.89,
US1NCDP0003,"MOUNT OLIVE 2.4 SW, NC US",35.176286,-78.101772,48.2,2019-02,,,,,1,2.31,
US1NCFK0010,"WAKE FOREST 3.5 NNW, NC US",36.019193,-78.535489,121.3,2019-02,,,,,1.23,4.81,
USW00013754,"HAVELOCK CHERRY POINT MCAS, NC US",34.9,-76.88333,8.8,2019-02,,,,,1.37,4,
US1NCAG0005,"SPARTA 2.8 NE, NC US",36.53255844,-81.08664703,836.7,2019-02,,,,,1.54,5.03,
USC00311817,"CLAYTON 3 E, NC US",35.63495,-78.39793,101.2,2019-02,,,,,1,4.71,
USC00310724,"BENT CREEK, NC US",35.5044,-82.5966,643.1,2019-02,0,0,0,0,,5.43,0
USW00003758,"DURHAM 11 W, NC US",35.9705,-79.0931,171.3,2019-02,,,,,1.32,5.66,
US1NCYD0004,"YADKINVILLE 0.2 E, NC US",36.13089752,-80.65548706,280.4,2019-02,,,,,1.43,6.32,
US1NCYD0003,"YADKINVILLE 6.3 SSE, NC US",36.05318451,-80.60283661,260.6,2019-02,,0,,0,1.59,6.38,0
US1NCPT0007,"WINTERVILLE 3.5 W, NC US",35.5258,-77.4605,25.9,2019-02,,,,,1.16,3.85,
US1NCBD0002,"ELIZABETHTOWN 6.2 NW, NC US",34.6847098,-78.6903913,46,2019-02,,,,,0.38,2.2,
US1NCBD0001,"BLADENBORO 2.0 NNW, NC US",34.565567,-78.811349,39.6,2019-02,,,,,0.54,2.1,
USC00318694,"TRANSOU, NC US",36.40039,-81.30525,863.8,2019-02,1,1,1,1,1.55,6.66,1
USC00318450,"SWANQUARTER FERRY, NC US",35.395,-76.326,0.9,2019-02,,,,,2.5,5.77,
US1NCHW0017,"CANTON 1.5 N, NC US",35.56776,-82.83938,847.6,2019-02,,,,,1.09,6.7,
US1NCHW0016,"CLYDE 0.6 SSE, NC US",35.526097,-82.907325,779.7,2019-02,,,,,1.37,7.57,
US1NCAV0004,"LINVILLE 2.4 ENE, NC US",36.08502,-81.84612,1316.7,2019-02,,,,,1.4,5.26,
US1NCRC0008,"NORMAN 0.4 SSE, NC US",35.16433333,-79.7195,178.6,2019-02,,,,,0.94,3.87,
USR0000NCAS,"CASWELL GAME LANDS N. CAROLINA, NC US",36.3856,-79.2919,176.8,2019-02,,,,,,,
US1NCCR0009,"BEAUFORT 5.3 N, NC US",34.7971,-76.6708,2.1,2019-02,,,,,4.23,6.87,
USC00311820,"CLAYTON WTP, NC US",35.6408,-78.4633,91.4,2019-02,,,,,0.9,5.11,
USC00319555,"W. KERR SCOTT RESV., NC US",36.1308,-81.2275,326.1,2019-02,0,0,0,0.3,1.2,6.2,0.3
US1NCHW0002,"MAGGIE VALLEY 2.9 ENE, NC US",35.5389,-83.0467,1051.6,2019-02,0,0,0,0,1.7,10.36,0
USC00318221,"SPRUCE PINE 4 ENE, NC US",35.93246,-82.00232,850.4,2019-02,1,1,1,1,0.94,5.14,1
US1NCPT0010,"FOUNTAIN 0.1 NE, NC US",35.674598,-77.637674,33.8,2019-02,,,,,1.3,4.52,
USC00310506,"BANNER ELK, NC US",36.1616,-81.8741,1149.1,2019-02,0,0,0,0,0.92,4.34,0
US1NCBR0007,"LONG BEACH 2.9 NE, NC US",33.945148,-78.111556,11.9,2019-02,,,,,0.41,1.67,
US1NCBR0006,"SUNSET BEACH 1.7 WNW, NC US",33.884053,-78.53773,4.9,2019-02,,,,,0.38,1.64,
US1NCBR0002,"LELAND 5.7 WSW, NC US",34.2024,-78.09481,21,2019-02,0,0,0,0,0.36,1.39,0
USC00310982,"BOONE 1 SE, NC US",36.21395,-81.64563,944.9,2019-02,2,1,2,2,1.13,5.14,2
US1NCON0110,"JACKSONVILLE 10.6 WSW, NC US",34.705692,-77.576426,19.2,2019-02,,,,,0.68,2.11,
US1NCHW0035,"WAYNESVILLE 5.5 NNW, NC US",35.558258,-83.034368,827.8,2019-02,,,,,1.58,9.33,
USR0000NMTI,"MOUNT ISLAND LAKE NORTH CAROLINA, NC US",35.3789,-80.9925,152.4,2019-02,,,,,,,
US1NCHW0039,"MAGGIE VALLEY 2.1 ENE, NC US",35.53165054,-83.05953217,1092.4,2019-02,,,,,1.99,11.23,
USW00013786,"ELIZABETH CITY COAST GUARD AIR STATION, NC US",36.26056,-76.175,4,2019-02,0,0,0,0,1.64,4.33,0
USC00311606,"CEDAR ISLAND, NC US",34.9833,-76.3,2.4,2019-02,0,0,0,0,4.02,6.61,0
US1NCAV0007,"LINVILLE FALLS 0.5 SW, NC US",35.95442,-81.952002,1024.7,2019-02,,,,,,5.47,
US1NCAV0009,"LINVILLE 2.5 ENE, NC US",36.08952,-81.83565,1425.9,2019-02,1,1,2,2,1.31,6.52,2
US1NCBR0013,"SOUTHPORT 5.9 W, NC US",33.939318,-78.123579,7.6,2019-02,,,,,0.44,1.55,
US1NCON0123,"JACKSONVILLE 3.3 W, NC US",34.761631,-77.461794,7,2019-02,,,,,0.7,2.44,
US1NCPT0037,"AYDEN 3.7 S, NC US",35.41846848,-77.43183136,18.9,2019-02,,,,,0.95,3.46,
US1NCPT0035,"GREENVILLE 2.8 ESE, NC US",35.58953476,-77.3261261,14,2019-02,,,,,1.04,4.17,
US1NCWT0006,"BLOWING ROCK 4.4 NE, NC US",36.164823,-81.605514,1178.1,2019-02,,,,,1.12,4.9,
US1NCAV0010,"PLUMTREE 0.5 W, NC US",36.027813,-82.016926,917.1,2019-02,,,,,1.36,6.27,
US1NCHW0025,"WAYNESVILLE 1.0 NW, NC US",35.493224,-83.012711,926.6,2019-02,,,,,1.79,10.96,
US1NCWT0007,"VALLE CRUCIS 1.4 SSE, NC US",36.191169,-81.76825,969,2019-02,,,,,1.04,4.79,
US1NCAV0012,"GRANDFATHER MOUNTAIN TOP SHOP, NC US",36.09561111,-81.83111111,1598.1,2019-02,,0,,0,1.09,5.49,0
US1NCMK0034,"MOUNT HOLLY 4.8 E, NC US",35.307277,-80.946864,205.7,2019-02,,,,,1.43,6.03,
USC00312940,"FAIRFIELD, NC US",35.5361,-76.3121,1.5,2019-02,0,,0,,1.81,4.73,
USC00319100,"WASHINGTON WWTP 4 W, NC US",35.55239,-77.0723,3,2019-02,0,0,0,0,1.19,4.05,0
US1NCMK0037,"DAVIDSON 0.8 W, NC US",35.49928665,-80.86012268,218.5,2019-02,,,,,1.01,6.32,
US1NCCA0004,"SOUTH MILLS 0.1 SW, NC US",36.44363,-76.328896,2.7,2019-02,,,,,1.3,3.78,
US1NCPT0047,"FARMVILLE 3.1 NW, NC US",35.62905,-77.62817,26.2,2019-02,,,,,,4.31,
US1NCWT0011,"FOSCOE 1.2 WSW, NC US",36.14607,-81.78767,996.7,2019-02,1,1,2,1.8,1.21,5.18,1.8
US1NCWT0010,"BLOWING ROCK 2.2 NE, NC US",36.148359,-81.640031,1054,2019-02,,,,,1.38,5.76,
USC00317165,"RED SPRINGS 1 SE, NC US",34.8122,-79.1622,54.9,2019-02,,,,,0.5,2.31,
US1NCCS0005,"YANCEYVILLE 2.4 SW, NC US",36.379289,-79.369125,150,2019-02,,,,,2,6.84,
US1NCPT0040,"GREENVILLE 2.0 SE, NC US",35.578383,-77.349917,21,2019-02,,,,,0.79,3.65,
US1NCCS0002,"MEBANE 11.2 N, NC US",36.251023,-79.238215,210,2019-02,,,,,1.84,6.94,
US1NCPS0001,"ELIZABETH CITY 2.6 W, NC US",36.30151667,-76.2668,3.4,2019-02,,,,,1.58,4.72,
US1NCIR0002,"HARMONY 3.4 SW, NC US",35.926022,-80.818824,260.9,2019-02,,,,,1.27,6.2,
USC00312719,"ELIZABETH CITY, NC US",36.3096,-76.205,2.4,2019-02,,,,,0.97,5.35,
US1NCIR0005,"STATESVILLE 2.9 ENE, NC US",35.795278,-80.834722,258.5,2019-02,,,,,1.17,6.41,
US1NCIR0008,"STATESVILLE 4.0 ENE, NC US",35.805219,-80.817922,281,2019-02,,,,,,6.72,
US1NCBR0035,"OAK ISLAND 2.3 E, NC US",33.917905,-78.120767,6.4,2019-02,,,,,0.37,1.46,
USC00310531,"BARNARDSVILLE 2 SE, NC US",35.76,-82.4325,707.1,2019-02,0,0,0,0,0.78,5.11,0
US1NCCT0037,"NEWTON 3.4 S, NC US",35.61579,-81.21682,274,2019-02,,,,,,6.98,
US1NCCT0038,"MAIDEN 3.6 W, NC US",35.56687,-81.26869,285.3,2019-02,,,,,1.76,7.28,
US1NCCT0039,"NEWTON 2.9 SE, NC US",35.635138,-81.183106,292.9,2019-02,,,,,,6.87,
USC00319357,"WHITEVILLE 7 NW, NC US",34.4094,-78.7913,27.4,2019-02,,,,,0.47,1.94,
USR0000NNCP,"NORTH COVE PINNACLE N. CAROLIN, NC US",35.8167,-81.9372,780.3,2019-02,,,,,,,
US1NCDR0052,"NAGS HEAD 1.4 NNW, NC US",35.964053,-75.632305,2.4,2019-02,,,,,1.29,3.75,
US1NCDR0051,"RODANTHE 1.0 SSE, NC US",35.580543,-75.464628,2.1,2019-02,,,,,2.72,4.58,
US1NCSM0002,"DUNN 7.1 SSE, NC US",35.2149627,-78.5702045,61.9,2019-02,,,,,0.89,3.09,
US1NCDR0054,"MANTEO 1.3 E, NC US",35.90207,-75.64376,1.8,2019-02,,,,,,2.04,
USC00317170,"REELSBORO, NC US",35.131,-76.9153,13.7,2019-02,0,0,0,0,0.87,3.12,0
US1NCMK0053,"CHARLOTTE 7.0 ENE, NC US",35.2365,-80.7197,227.1,2019-02,,,,,1.4,5.69,
US1NCIR0017,"HARMONY 2.2 N, NC US",35.989379,-80.768892,283.5,2019-02,,,,,1.31,6.65,
US1NCIR0019,"STATESVILLE 6.5 WSW, NC US",35.749448,-80.992562,289,2019-02,,,,,1.18,6.51,
US1NCBR0045,"BOLIVIA 7.6 SW, NC US",33.98538971,-78.22995758,13.1,2019-02,,,,,0.49,1.75,
US1NCCT0025,"CONOVER 2.8 NE, NC US",35.732117,-81.177032,294.4,2019-02,,,,,1.22,6.26,
US1NCMK0059,"CHARLOTTE 6.6 SE, NC US",35.118667,-80.767196,201.5,2019-02,,,,,1.63,5.81,
USC00319123,"WATERVILLE 2, NC US",35.77449,-83.09985,435.9,2019-02,,,,,1.46,5.56,
US1NCCT0027,"HICKORY 5.3 NE, NC US",35.78706,-81.25164,324.9,2019-02,,,,,1.34,6.35,
USR0000NGUI,"GUION FARM NORTH CAROLINA, NC US",35.2133,-82.59,792.5,2019-02,,,,,,,
US1NCCB0020,"MOUNT PLEASANT 0.3 SSE, NC US",35.398288,-80.434669,191.4,2019-02,,,,,,5.24,
US1NCCB0023,"CONCORD 1.8 ENE, NC US",35.4135,-80.564,206,2019-02,,,,,1.38,6.08,
US1NCWT0037,"BOONE 4.6 E, NC US",36.21631667,-81.58855,1010.1,2019-02,1,1,2,2,1.3,5.71,2
USC00316096,"NEWPORT MOREHEAD CITY WEATHER FORECAST OFFICE, NC US",34.7763,-76.877,9.1,2019-02,0,0,0,0,1.4,4.39,0
US1NCCB0021,"MIDLAND 1.9 WSW, NC US",35.214363,-80.529724,159.1,2019-02,,,,,1.25,4.27,
US1NCDR0063,"BUXTON 0.3 ENE, NC US",35.270821,-75.53435,1.5,2019-02,,,,,,4.31,
US1NCPS0022,"ELIZABETH CITY 3.5 NNW, NC US",36.33988,-76.251086,2.4,2019-02,,,,,1.42,4.97,
US1NCPT0063,"WINTERVILLE 2.8 WNW, NC US",35.550485,-77.439309,21.9,2019-02,,,,,0.63,3.29,
US1NCDR0062,"MANTEO 2.8 NW, NC US",35.926289,-75.704517,4,2019-02,,,,,1.43,4.04,
US1NCCB0026,"CONCORD 3.4 NNE, NC US",35.4505,-80.564,193.2,2019-02,,,,,1.23,6.15,
US1NCMK0064,"MATTHEWS 1.3 S, NC US",35.1027,-80.7156,200.6,2019-02,,,,,1.5,4.96,
US1NCIR0025,"STATESVILLE 8.3 WSW, NC US",35.74322,-81.024766,294.1,2019-02,,,,,,6.78,
US1NCMK0068,"HUNTERSVILLE 2.0 W, NC US",35.417665,-80.880048,228,2019-02,,,,,1.17,6.45,
USR0000NNAC,"NATURE CONSERVANCY NORTH CAROL, NC US",34.0483,-78.2903,16.8,2019-02,,,,,,,
US1NCWS0003,"ROPER 2.4 NE, NC US",35.8983068,-76.582247,3,2019-02,,,,,0.76,2.75,
US1NCSN0013,"OAKBORO 0.7 SW, NC US",35.21713,-80.334731,162.8,2019-02,,,,,0.9,4.54,
USC00311881,"CLINTON 2 NE, NC US",35.02508,-78.276,48.2,2019-02,,,,,0.68,2.45,
US1NCWT0042,"BETHEL 2.2 NNE, NC US",36.328319,-81.842956,984.2,2019-02,,,,,1.55,8.68,
US1NCCB0015,"CONCORD 1.0 SW, NC US",35.395539,-80.605861,227.1,2019-02,,,,,2.2,6.37,
US1NCIR0021,"MOORESVILLE 1.3 WSW, NC US",35.568733,-80.832221,249.3,2019-02,,,,,1.25,5.72,
US1NCAS0022,"FLEETWOOD 3.1 SSE, NC US",36.265016,-81.488872,1012.9,2019-02,,,,,1.24,5.93,
US1NCCD0014,"LENOIR 10.6 NNE, NC US",36.054581,-81.484265,477.9,2019-02,,,,,1.1,5.83,
US1NCWK0061,"RALEIGH 8.4 N, NC US",35.9425,-78.6812,126.8,2019-02,,,,,1.14,5.18,
USC00312500,"DUNN 4 NW, NC US",35.32432,-78.68782,61,2019-02,,,,,0.7,3.26,
US1NCWK0065,"HOLLY SPRINGS 3.6 SSE, NC US",35.604149,-78.818929,136.2,2019-02,,,,,1.09,4.48,
USC00319147,"WAYNESVILLE 1 E, NC US",35.4868,-82.9681,810.2,2019-02,0,0,0,0,1.36,8.93,0
US1NCCT0006,"SHERRILLS FORD 2.4 WNW, NC US",35.593812,-81.027951,267,2019-02,,,,,1.37,6.42,
US1NCBR0061,"SOUTHPORT 2.7 NNW, NC US",33.959876,-78.040303,9.1,2019-02,,,,,0.49,1.63,
US1NCPR0005,"HERTFORD 5.2 SSE, NC US",36.11580276,-76.43390656,3,2019-02,,,,,1.17,4.52,
US1NCSN0006,"RICHFIELD 0.2 SSW, NC US",35.468295,-80.25775,199,2019-02,,,,,1.34,6.38,
USC00312740,"ELKIN, NC US",36.25465,-80.86396,277.4,2019-02,0,0,0,0,1.6,5.81,0
US1NCJC0019,"TUCKASEGEE 3.7 ESE, NC US",35.255121,-83.05926,957.4,2019-02,,,,,1.6,8.51,
US1NCPT0089,"GREENVILLE 2.2 WSW, NC US",35.592275,-77.411546,18.3,2019-02,,,,,1.43,4.49,
US1NCPT0088,"GREENVILLE 5.0 SE, NC US",35.5489,-77.3111,19.8,2019-02,,,,,0.66,3.57,
US1NCBF0016,"BATH 6.6 ESE, NC US",35.4265,-76.7072,1.8,2019-02,,,,,1.28,4.3,
US1NCFK0020,"LOUISBURG 10.6 SSE, NC US",35.970495,-78.196786,57.6,2019-02,,,,,1.25,5.41,
USC00318292,"STATESVILLE 2 NNE, NC US",35.8099,-80.8808,244.8,2019-02,0,0,0,0,1.2,6.27,0
US1NCFK0024,"LOUISBURG 10.0 SE, NC US",35.983056,-78.194167,77.4,2019-02,,,,,1.19,5,
US1NCFK0025,"FRANKLINTON 3.7 SSE, NC US",36.0513,-78.4435,114,2019-02,,0,,0,1.27,4.94,0
US1NCAS0012,"LANSING 5.9 NW, NC US",36.5628,-81.58241,1052.2,2019-02,,,,,1.94,10.04,
US1NCPR0010,"HERTFORD 6.9 SSE, NC US",36.095043,-76.41782,2.4,2019-02,,,,,1.06,4.35,
USC00314938,"LENOIR, NC US",35.9147,-81.5374,352,2019-02,0,0,0,0.5,0.75,5.33,0.5
USC00311429,"CANE CREEK RESERVOIR, NC US",35.9495,-79.2386,160,2019-02,,,,,1.08,5.5,
US1NCBR0078,"LELAND 4.1 S, NC US",34.181751,-78.015339,7.6,2019-02,,,,,0.23,1.11,
US1NCPR0014,"HERTFORD 11.4 E, NC US",36.175195,-76.270258,0.9,2019-02,,,,,1.3,4.55,
USC00310576,"BAYBORO 3 SW, NC US",35.1311,-76.816,1.5,2019-02,0,0,0,0,2.05,4.57,0
US1NCBR0076,"LELAND 3.5 SSW, NC US",34.194704,-78.03106,7.6,2019-02,,,,,,1.25,
USR0000NGRC,"GREENS CROSS NORTH CAROLINA, NC US",36.0175,-76.8917,12.8,2019-02,,,,,,,
US1NCBR0073,"BOLIVIA 8.0 SW, NC US",33.98785019,-78.24365234,9.4,2019-02,,,,,0.38,1.41,
USC00311420,"CANDLER 1 W, NC US",35.5453,-82.6987,682.8,2019-02,0,0,0,0,0.93,5.05,0
US1NCBR0071,"BOLIVIA 7.8 SW, NC US",33.9989909,-78.251092,11.6,2019-02,,,,,0.28,1.41,
US1NCPR0015,"HERTFORD 6.0 SSE, NC US",36.10837,-76.42121,3,2019-02,,,,,1.14,4.33,
USC00312993,"FALLS LAKE, NC US",35.9808,-78.6529,85.3,2019-02,,,,,1.2,4.94,
USR0000NGRF,"GRANDFATHER NORTH CAROLINA, NC US",35.7564,-82.0439,487.7,2019-02,,,,,,,
US1NCWT0068,"VILAS 6.3 NNW, NC US",36.333795,-81.821695,981.2,2019-02,,,,,1.64,8.46,
US1NCWT0067,"BOONE 0.3 WSW, NC US",36.207337,-81.674323,974.1,2019-02,,,,,1.13,4.88,
USC00318066,"SNOW HILL WASTE WATER TREAMENT PLANT, NC US",35.4551,-77.6668,12.5,2019-02,0,0,0,0,0.7,3.58,0
US1NCAS0002,"CRESTON 2.8 SW, NC US",36.4075,-81.6689,926.6,2019-02,,,,,1.79,8.72,
US1NCWK0084,"APEX 5.5 SW, NC US",35.66919,-78.91351,93.9,2019-02,,,,,0.83,4.76,
US1NCBR0088,"CALABASH 2.5 E, NC US",33.897351,-78.532663,9.1,2019-02,,,,,0.45,1.61,
USC00311677,"CHAPEL HILL 2 W, NC US",35.9086,-79.0794,152.4,2019-02,,,,,1.12,5.22,
US1NCNH0045,"KURE BEACH 2.4 SSW, NC US",33.96278,-77.92556,1.8,2019-02,,,,,,1.83,
US1NCBR0083,"HOLDEN BEACH 1.7 ENE, NC US",33.913963,-78.284392,2.4,2019-02,,,,,,1.76,
US1NCNH0046,"WILMINGTON 6.2 SSE, NC US",34.129467,-77.868518,1.5,2019-02,,,,,0.45,1.54,
US1NCDR0027,"KILL DEVIL HILLS 1.6 N, NC US",36.038507,-75.671259,4.3,2019-02,,,,,,3.64,
US1NCLN0010,"VALE 4.2 W, NC US",35.539062,-81.471724,335,2019-02,,,,,1.4,7.88,
US1NCHK0010,"LUMBER BRIDGE 4.0 N, NC US",34.946577,-79.080691,58.8,2019-02,,,,,,2.6,
US1NCDR0028,"MANTEO 2.5 WNW, NC US",35.917809,-75.704407,3,2019-02,,,,,1.58,4.05,
USR0000NCHE,"CHEOAH NORTH CAROLINA, NC US",35.3333,-83.8167,640.1,2019-02,,,,,,,
US1NCHK0014,"RED SPRINGS 3.8 NW, NC US",34.849074,-79.235635,66.8,2019-02,,,,,0.28,1.62,
US1NCDR0024,"DUCK 1.1 SSE, NC US",36.154243,-75.74781,13.4,2019-02,,,,,0.73,3.83,
US1NCWK0090,"RALEIGH 3.8 SSW, NC US",35.77,-78.68,87.5,2019-02,,,,,0.76,3.79,
USC00310356,"ATLANTIC BEACH WATER PLANT, NC US",34.6997,-76.7381,1.2,2019-02,0,0,0,0,3.35,5.83,0
USC00313625,"GREENSBORO WTP, NC US",36.08317,-79.80447,233.2,2019-02,,,,,1.5,5.04,
USR0000NREN,"RENDEZVOUS MOUNTAIN NORTH CAROLINA, NC US",36.2275,-81.2975,726.6,2019-02,,,,,,,
US1NCNH0063,"SMITH CREEK 0.8 E, NC US",34.263102,-77.849303,14,2019-02,,,,,0.3,1.65,
US1NCBR0090,"SUNSET BEACH 2.5 NE, NC US",33.90272,-78.482076,7.9,2019-02,,,,,0.37,1.63,
US1NCHK0003,"RAEFORD 9.6 E, NC US",34.9592,-79.0558,63.1,2019-02,,,,,0.39,2.44,
US1NCLN0004,"LINCOLNTON 4.4 WSW, NC US",35.4606,-81.3296,270.4,2019-02,,0,,0,1.25,6.44,0
US1NCDR0033,"MANTEO 1.0 WNW, NC US",35.90700912,-75.68187714,2.1,2019-02,,,,,1.3,3.75,
USC00313638,"GREENVILLE, NC US",35.64,-77.3984,9.8,2019-02,0,0,0,0,1.17,4.31,0
US1NCWK0022,"APEX 6.1 ESE, NC US",35.6918,-78.7443,121.9,2019-02,,,,,0.85,4.82,
US1NCWK0020,"HOLLY SPRINGS 6.0 ENE, NC US",35.681989,-78.734861,121.9,2019-02,,,,,0.91,4.74,
USC00314962,"LEWISTON, NC US",36.1325,-77.1708,15.2,2019-02,,,,,1.56,5.29,
US1NCNH0066,"WILMINGTON 3.7 S, NC US",34.15884,-77.92118,3,2019-02,,,,,0.4,1.48,
US1NCWK0027,"RALEIGH 5.7 ENE, NC US",35.838056,-78.559722,81.1,2019-02,,,,,0.95,4.39,
US1NCNH0068,"WILMINGTON 7.3 NE, NC US",34.275786,-77.808867,7.9,2019-02,,,,,0.31,1.33,
USC00314970,"LEXINGTON, NC US",35.84566,-80.25987,231.6,2019-02,,,,,1.6,8.28,
US1NCDS0013,"CLEMMONS 6.5 SE, NC US",35.959984,-80.298842,256.3,2019-02,,,,,1.2,5.31,
USR0000NSUN,"SUNNY POINT NORTH CAROLINA, NC US",34.0028,-77.9581,9.1,2019-02,,,,,,,
US1NCWK0270,"WENDELL 1.3 NNE, NC US",35.7986,-78.358,84.7,2019-02,,,,,0.9,4.64,
US1NCWK0034,"APEX 3.5 W, NC US",35.7331,-78.9073,96.9,2019-02,,,,,0.79,4.56,
US1NCWK0273,"HOLLY SPRINGS 1.2 SSW, NC US",35.639491,-78.845514,,2019-02,,,,,1.11,4.96,
USC00310375,"AURORA 6 N, NC US",35.3872,-76.7763,6.1,2019-02,0,0,0,0,,4.06,0
US1NCHD0013,"ENGELHARD 0.8 NW, NC US",35.519675,-76.004754,0.6,2019-02,,,,,2.35,4.69,
US1NCSK0011,"KING 4.2 N, NC US",36.3387981,-80.3653077,302.1,2019-02,,,,,2.01,6.02,
US1NCDS0022,"DENTON 1.1 NNW, NC US",35.651476,-80.11914,199,2019-02,,,,,1.03,6.11,
US1NCRT0003,"ELLENBORO 3.1 SW, NC US",35.2926,-81.7913,274.9,2019-02,,,,,1.96,8.07,
US1NCDS0021,"HIGH POINT 3.3 WSW, NC US",35.968695,-80.055181,261.2,2019-02,,,,,0.94,5.23,
US1NCWK0282,"RALEIGH 12.7 SSW, NC US",35.64354,-78.71493,107.6,2019-02,,,,,,4.77,
USC00311239,"BURLINGTON FIRE STATION NUMBER 5, NC US",36.06003,-79.44811,201.2,2019-02,,,,,,,
US1NCJN0001,"NEW BERN 4.4 SW, NC US",35.07159388,-77.12831294,4.9,2019-02,,,,,1.53,4.68,
US1NCRT0006,"CHIMNEY ROCK 0.3 E, NC US",35.441842,-82.254283,366.7,2019-02,,,,,1.49,7.85,
US1NCWK0281,"APEX 7.2 W, NC US",35.733089,-78.973309,85,2019-02,,,,,0.74,3.46,
USC00315838,"MORGANTON, NC US",35.72972,-81.67273,359.7,2019-02,0,0,0,0,1.1,6.35,0
US1NCWK0044,"CLAYTON 3.3 NW, NC US",35.682293,-78.499136,98.1,2019-02,,,,,0.74,4.57,
USC00314987,"LILLINGTON, NC US",35.40688,-78.82024,45.7,2019-02,,,,,0.8,4.02,
USC00315830,"MOREHEAD CITY 2 WNW, NC US",34.7336,-76.7357,3,2019-02,0,,0,,4,6.34,
US1NCCN0030,"NEW BERN 7.3 ESE, NC US",35.07766342,-76.96113586,2.4,2019-02,,,,,1.71,4.04,
US1NCRT0008,"UNION MILLS 2.6 ENE, NC US",35.5012619,-81.920747,317.9,2019-02,,,,,1.44,6.56,
US1NCSK0002,"DANBURY 4.6 NNW, NC US",36.46511459,-80.25659943,323.4,2019-02,,,,,1.68,7.87,
US1NCRT0015,"ELLENBORO 3.6 N, NC US",35.38016,-81.77105,333.1,2019-02,,,,,1.21,6.99,
US1NCWK0056,"GARNER 3.8 SSE, NC US",35.6428,-78.6042,98.8,2019-02,,,,,0.79,4.61,
USC00311248,"BURNSVILLE AG, NC US",35.92503,-82.27161,861.1,2019-02,,,,,1.25,5.06,
USC00314997,"LINCOLNTON 2 NW, NC US",35.48,-81.2799,245.4,2019-02,0,0,0,0,1.35,7.34,0
USC00312574,"EAST FLAT ROCK 3 SE, NC US",35.24573,-82.38916,527.3,2019-02,,,,,1.71,9.36,
US1NCCN0044,"NEW BERN 5.3 SW, NC US",35.07467651,-77.15361023,6.7,2019-02,,,,,1.36,3.51,
USC00314996,"LINCOLNTON 4 W, NC US",35.4606,-81.3296,270.4,2019-02,0,0,0,0,1.25,6.8,0
US1NCRT0010,"RUTHERFORDTON 2.6 WSW, NC US",35.352842,-82.00522,310.6,2019-02,,,,,1.44,8.35,
US1NCCM0008,"FAYETTEVILLE 1.6 WSW, NC US",35.064246,-78.926823,66.1,2019-02,,,,,0.57,2.85,
US1NCCM0006,"HOPE MILLS 8.3 SE, NC US",34.880642,-78.860023,43.6,2019-02,,,,,0.48,2.24,
USR0000NUWH,"UWHARRIE TROY NORTH CAROLINA, NC US",35.3667,-79.8667,164.6,2019-02,,,,,,,
US1NCCM0005,"FAYETTEVILLE 4.4 SW, NC US",35.023718,-78.950863,47.9,2019-02,,,,,0.53,2.87,
US1NCCM0001,"FAYETTEVILLE 2.4 S, NC US",35.036733,-78.906833,46.9,2019-02,,,,,,2.39,
USC00314764,"LAKE LURE 2, NC US",35.42041,-82.18753,317,2019-02,0,0,0,0,1.51,8.04,0
US1NCRG0012,"EDEN 2.3 ENE, NC US",36.51657,-79.7035282,176.5,2019-02,,,,,1.36,6.19,
USR0000NDUK,"DUKE FOREST NORTH CAROLINA, NC US",35.9667,-79.0917,172.2,2019-02,,,,,,,
US1NCWK0223,"GARNER 6.0 S, NC US",35.608912,-78.642529,101.5,2019-02,,,,,,4.59,
USC00312102,"COWEETA EXPERIMENTAL STATION, NC US",35.0604,-83.4301,684.9,2019-02,0,0,0,0,2.42,12.81,0
US1NCTR0024,"BREVARD 6.5 S, NC US",35.1442229,-82.731576,93,2019-02,,,,,2.83,12.33,
US1NCTR0021,"BREVARD 0.7 SE, NC US",35.2311055,-82.7218157,653.8,2019-02,,,,,2.09,9.26,
US1NCTR0029,"SAPPHIRE 4.6 SW, NC US",35.059478,-83.008389,969,2019-02,,,,,2.64,12.64,
US1NCTR0027,"CEDAR MOUNTAIN 1.9 E, NC US",35.148222,-82.609583,895.5,2019-02,,,,,2.48,11.62,
US1NCTR0026,"BREVARD 2.2 SSW, NC US",35.207387,-82.742831,667.5,2019-02,,,,,2.19,10.4,
US1NCPK0001,"COLUMBUS 1.9 E, NC US",35.251223,-82.171502,315.5,2019-02,,,,,1.85,9.35,
US1NCPK0002,"COLUMBUS 6.6 NNW, NC US",35.328683,-82.263588,319.4,2019-02,,,,,1.99,9.17,
US1NCPK0005,"TRYON 2.2 ESE, NC US",35.1968,-82.20293,342.3,2019-02,,,,,1.61,9.28,
US1NCPK0006,"SALUDA 0.5 N, NC US",35.24541,-82.34928,646.8,2019-02,,,,,1.91,10.47,
US1NCPK0008,"RUTHERFORDTON 9.5 S, NC US",35.22758,-81.976704,285.6,2019-02,,,,,1.17,7.41,
US1NCTR0030,"BREVARD 6.7 S, NC US",35.14097,-82.73639,913.5,2019-02,,,,,2.79,11.87,
USW00053870,"GASTONIA MUNICIPAL AIRPORT, NC US",35.19667,-81.15583,242.9,2019-02,,,,,1.36,5.83,
USW00053872,"MONROE AIRPORT, NC US",35.01694,-80.62056,207,2019-02,,,,,0.66,3.74,
USW00053877,"ASHEVILLE 8 SSW, NC US",35.4945,-82.6142,655.6,2019-02,,,,,0.9,5.46,
US1NCMR0040,"ABERDEEN 0.7 NW, NC US",35.147273,-79.428785,120.1,2019-02,,,,,0.55,2.8,
USW00053878,"ASHEVILLE 13 S, NC US",35.4185,-82.5567,641,2019-02,,,,,1.12,7.3,
USC00318906,"VALE AG 2 SW, NC US",35.52364,-81.44435,300.2,2019-02,0,0,0,0,1.36,7.19,0
US1NCWK0242,"RALEIGH 7.9 SSW, NC US",35.718607,-78.717989,116.1,2019-02,,,,,0.83,4.15,
US1NCWK0001,"RALEIGH 10.3 N, NC US",35.969613,-78.688719,113.1,2019-02,0,,0,,1.27,5.48,
USC00314788,"LAKE TOXAWAY 2 SW, NC US",35.0966,-82.9509,975.4,2019-02,0,0,0,0,,12.57,0
USC00317813,"SHALLOTTE AG, NC US",33.9283,-78.3894,6.1,2019-02,,,,,0.45,1.8,
US1NCWK0004,"APEX 3.4 ESE, NC US",35.71335,-78.7854,125,2019-02,,,,,0.82,4.95,
US1NCWK0247,"APEX 1.8 E, NC US",35.729496,-78.813766,134.1,2019-02,,,,,0.62,4.57,
US1NCWK0002,"RALEIGH 1.5 SW, NC US",35.805725,-78.675888,110,2019-02,,,,,0.73,3.96,
US1NCWK0003,"RALEIGH 6.2 E, NC US",35.814267,-78.547817,73.2,2019-02,,,,,0.78,4.17,
US1NCTR0001,"BREVARD 1.2 NNW, NC US",35.2551,-82.7351,771.1,2019-02,,,,,1.96,11.25,
US1NCSM0013,"ROSEBORO 1.5 WSW, NC US",34.941955,-78.534912,39.9,2019-02,,,,,0.66,2.35,
US1NCSM0011,"HARRELLS 0.7 SE, NC US",34.7238,-78.1905,23.8,2019-02,,,,,0.62,1.95,
US1NCTR0008,"BREVARD 0.7 NNE, NC US",35.2466,-82.7262,653.5,2019-02,,0,,0,2.71,11.65,0
US1NCPK0025,"COLUMBUS 1.7 SSE, NC US",35.224717,-82.190807,338,2019-02,,,,,1.73,9.29,
US1NCWK0250,"ROLESVILLE 0.6 NE, NC US",35.93331,-78.44825,128.9,2019-02,,,,,1.2,4.45,
US1NCCN0009,"NEW BERN 1.3 NNE, NC US",35.13871,-77.07385,4.9,2019-02,,,,,0.84,2.66,
USC00313228,"FRANKLIN, NC US",35.18038,-83.39294,647.7,2019-02,0,0,0,0,1.27,8.94,0
US1NCWK0013,"RALEIGH 5.9 ENE, NC US",35.862421,-78.566454,103.9,2019-02,,,,,1.08,4.81,
US1NCWK0255,"GORMAN 7.2 SE, NC US",35.977313,-78.708743,126.2,2019-02,,,,,1.26,5.35,
US1NCWK0006,"HOLLY SPRINGS 1.1 ESE, NC US",35.64888,-78.81709,123.1,2019-02,,,,,0.9,5.17,
US1NCGV0010,"OXFORD 2.5 WSW, NC US",36.2965,-78.629902,156.1,2019-02,,,,,1.35,6.11,
USC00315890,"MOUNT AIRY 2 W, NC US",36.49618,-80.65226,329.2,2019-02,0,0,0,0.5,2.11,7.02,0.5
US1NCGV0016,"CREEDMOOR 4.3 E, NC US",36.118611,-78.609722,113.1,2019-02,,,,,1.47,5.36,
US1NCSM0023,"NEWTON GROVE 2.6 SSE, NC US",35.215605,-78.343165,53.9,2019-02,,,,,0.68,3.12,
US1NCSM0022,"ROSEBORO 10.0 N, NC US",35.098589,-78.50821,52.1,2019-02,,,,,0.55,2.89,
US1NCBC0129,"WOODFIN 3.7 NW, NC US",35.67764,-82.62631,629.4,2019-02,,,,,0.82,4.71,
US1NCGS0021,"GASTONIA 1.8 SSE, NC US",35.2282486,-81.15982056,226.2,2019-02,,,,,1.1,5.67,
USC00313238,"GARNER, NC US",35.6708,-78.6608,100.6,2019-02,,,,,0.88,5.16,
US1NCBC0121,"ASHEVILLE 2.4 NNW, NC US",35.606532,-82.564416,647.4,2019-02,,,,,0.81,4.21,
USC00311055,"BREVARD, NC US",35.22844,-82.73575,662.9,2019-02,0,0,0,0,2.6,13.27,0
USC00316510,"OXFORD AG, NC US",36.30402,-78.61083,152.4,2019-02,,,,,2.18,5.9,
US1NCBC0133,"ASHEVILLE 4.9 E, NC US",35.5794,-82.4621,679.1,2019-02,,,,,,5.26,
US1NCBC0134,"SWANNANOA 4.0 NNW, NC US",35.654916,-82.421087,969.3,2019-02,,,,,0.83,4.94,
USC00317845,"SHELBY 2 NW, NC US",35.31099,-81.57096,249.9,2019-02,0,0,0,0,1.09,6.69,0
US1NCCR0098,"SWANSBORO 3.0 NE, NC US",34.72542953,-77.09806061,8.8,2019-02,,,,,1.33,3.34,
US1NCBC0105,"BLACK MOUNTAIN 1.3 NNE, NC US",35.631942,-82.322097,791,2019-02,,,,,0.97,5.38,
US1NCGS0044,"GASTONIA 4.3 E, NC US",35.24704742,-81.0959549,200.9,2019-02,,,,,1.26,5.8,
US1NCCR0095,"CAPE CARTERET 0.8 N, NC US",34.70579,-77.05772,9.8,2019-02,,,,,1.44,3.6,
USC00317618,"SALISBURY 9 WNW, NC US",35.6967,-80.6225,221,2019-02,0,0,0,0,1.24,5.69,0
USC00313017,"FAYETTEVILLE PWC, NC US",35.05909,-78.85883,29.3,2019-02,,,,,0.5,2.42,
USC00317615,"SALISBURY, NC US",35.6836,-80.4822,213.4,2019-02,0,0,0,0,,4.58,0
US1NCWK0202,"WAKE FOREST 2.4 N, NC US",36.004909,-78.513168,110.9,2019-02,,,,,1.16,4.98,
US1NCWK0203,"RALEIGH 3.6 NNE, NC US",35.871259,-78.638678,121.6,2019-02,0,0,0,0.1,1.13,4.83,0.1
USW00093727,"NEW RIVER MCAF, NC US",34.70842,-77.43966,7.9,2019-02,,,,,0.23,0.83,
USW00093729,"CAPE HATTERAS BILLY MITCHELL FIELD, NC US",35.2326,-75.6219,3.4,2019-02,0,0,0,0,3.5,6.67,0
USC00311081,"BRIDGEWATER HYDRO, NC US",35.7427,-81.8362,335.3,2019-02,,,,,1,5.71,
US1NCWL0010,"PURLEAR 4.6 WNW, NC US",36.2132355,-81.3574197,420,2019-02,,0,,0.7,1.91,5.42,0.8
US1NCGS0037,"KINGS MOUNTAIN 3.4 NNE, NC US",35.288582,-81.330879,284.4,2019-02,,,,,1.7,7.7,
US1NCNS0002,"NASHVILLE 3.2 W, NC US",35.970875,-78.010894,68.3,2019-02,,,,,1.25,4.94,
US1NCBC0113,"ARDEN 1.6 E, NC US",35.4654808,-82.48762512,685.5,2019-02,,,,,1.45,7.4,
US1NCBC0114,"FAIRVIEW 0.3 NNW, NC US",35.527152,-82.406555,711.4,2019-02,,,,,1.2,6.07,
US1NCWK0214,"HOLLY SPRINGS 3.3 E, NC US",35.655784,-78.777755,95.4,2019-02,,,,,0.83,4.78,
US1NCWK0205,"WAKE FOREST 1.8 SE, NC US",35.954349,-78.496715,81.7,2019-02,,,,,1.22,4.85,
USW00093719,"NEW BERN ASOS, NC US",35.0677,-77.048,5.8,2019-02,0,,0,,0.75,3.61,
US1NCCR0073,"PINE KNOLL SHORES 1.4 E, NC US",34.698465,-76.7939278,3.4,2019-02,,,,,3.04,5.62,
US1NCCR0074,"NEWPORT 1.0 N, NC US",34.80241098,-76.86422937,8.2,2019-02,,,,,2.69,4.56,
US1NCCR0075,"PINE KNOLL SHORES 0.3 NE, NC US",34.698233,-76.814932,1.5,2019-02,,,,,2.53,4.73,
USC00317400,"ROCKY MOUNT 8 ESE, NC US",35.8936,-77.6806,33.5,2019-02,,,,,0.72,4.99,
US1NCPM0012,"ORIENTAL 5.2 NE, NC US",35.092905,-76.626399,1.2,2019-02,,,,,2.64,4.67,
US1NCPM0010,"ORIENTAL 4.3 NNW, NC US",35.090532,-76.720234,2.4,2019-02,,,,,2.68,5.11,
USC00318500,"TARBORO 1 S, NC US",35.88413,-77.53857,10.7,2019-02,,,,,0.7,4.48,
US1NCWN0015,"ELM CITY 7.1 ESE, NC US",35.755,-77.7545,43.9,2019-02,,,,,0.82,4.28,
US1NCBC0148,"BLACK MOUNTAIN 2.1 W, NC US",35.617114,-82.368058,702,2019-02,0,0,0,0,0.96,5.19,0
US1NCRW0017,"SALISBURY 3.4 NW, NC US",35.696149,-80.532192,233.8,2019-02,,,,,1.14,6.37,
USW00003810,"HICKORY FAA AIRPORT, NC US",35.74207,-81.38229,358.1,2019-02,,,,,0.92,3.26,
US1NCRW0016,"FAITH 0.3 WNW, NC US",35.589538,-80.465536,254.8,2019-02,,,,,1.07,5.84,
US1NCBC0144,"MARS HILL 2.6 SE, NC US",35.802483,-82.515531,684,2019-02,,,,,0.78,5.5,
USW00003812,"ASHEVILLE AIRPORT, NC US",35.4319,-82.5375,645.3,2019-02,0,0,0,0,1.12,6.91,0
US1NCBC0145,"AVERY CREEK 0.9 ESE, NC US",35.4567,-82.5596,647.1,2019-02,,,,,0.97,6.52,
US1NCCR0053,"NEWPORT 1.7 SSE, NC US",34.7645925,-76.85201459,5.8,2019-02,,,,,2.51,4.08,
US1NCBK0019,"GLEN ALPINE 2.6 W, NC US",35.73228,-81.82479,375.8,2019-02,,,,,0.99,4.72,
US1NCBK0013,"JONAS RIDGE 1.4 S, NC US",35.95204,-81.891753,1107.9,2019-02,,,,,0.8,5.93,
US1NCGS0008,"GASTONIA 5.7 SE, NC US",35.230702,-81.09677,221,2019-02,,,,,1.4,6.15,
US1NCGS0009,"BELMONT 0.4 E, NC US",35.249,-81.0335,205.4,2019-02,,,,,1.55,6.5,
US1NCGS0006,"GASTONIA 3.9 ESE, NC US",35.25389,-81.12006,211.8,2019-02,,,,,1.05,5.86,
USC00317656,"SANFORD 8 NE, NC US",35.53554,-79.04747,79.9,2019-02,,,,,0.96,4.41,
USC00318744,"TRYON, NC US",35.20574,-82.25178,402.3,2019-02,0,0,0,0,2,9.37,0
US1NCDV0001,"SHEFFIELD 1.3 SW, NC US",35.951931,-80.694574,256.6,2019-02,,1,,2.3,1.19,5.54,2.3
US1NCDV0002,"ADVANCE 0.2 ESE, NC US",35.941354,-80.413365,254.5,2019-02,,,,,1.04,5.74,
US1NCRW0015,"SPENCER 2.3 N, NC US",35.72795868,-80.43518829,211.5,2019-02,,,,,1.18,5.06,
US1NCDV0006,"ADVANCE 2.9 NW, NC US",35.9734,-80.4415,226.8,2019-02,,,,,1.07,5.87,
US1NCDV0009,"SHEFFIELD 1.9 NE, NC US",35.99574789,-80.6641712,278.9,2019-02,,,,,1.35,6.56,
USC00318519,"TAYLORSVILLE, NC US",35.9225,-81.1716,402.3,2019-02,0,0,0,0.5,0.85,5.47,0.5
US1NCBK0002,"GLEN ALPINE 2.8 S, NC US",35.6886819,-81.7860105,343.8,2019-02,,,,,1.19,6.82,
US1NCBK0004,"GLEN ALPINE 0.7 WSW, NC US",35.7266,-81.7902,384.7,2019-02,,,,,1,5.81,
US1NCBC0150,"LEICESTER 4.5 SW, NC US",35.61842,-82.763046,780.3,2019-02,0,0,0,0,0.92,6.26,0
USC00313072,"FLAT SPRINGS 1 E, NC US",36.25251,-81.91352,1015,2019-02,0,0,0,0.1,1.25,7.28,0.1
USR0000NBUS,"BUSICK NORTH CAROLINA, NC US",35.7694,-82.1917,881.5,2019-02,,,,,,,
USC00316341,"CHEROKEE, NC US",35.48997,-83.31361,598.9,2019-02,0,0,0,0,2.3,11.29,0
US1NCDV0012,"MOCKSVILLE 3.7 W, NC US",35.8917,-80.6225,234.1,2019-02,,,,,1.05,5.57,
US1NCAX0009,"MILLERSVILE 1.2 SW, NC US",35.840017,-81.197432,324.6,2019-02,,,,,1.12,5.16,
US1NCPM0026,"ORIENTAL 1.7 WSW, NC US",35.022605,-76.710877,2.1,2019-02,,,,,2.78,5.08,
US1NCPM0020,"GRANTSBORO 4.6 SSW, NC US",35.08031063,-76.88090332,7,2019-02,,,,,2.05,4.71,
US1NCRW0002,"CHINA GROVE 4.4 W, NC US",35.563451,-80.658223,263.3,2019-02,,,,,1.15,5.29,
US1NCPM0021,"LOWLAND 0.2 SE, NC US",35.2968509,-76.5612869,0.6,2019-02,,,,,2.49,5.55,
USC00317202,"REIDSVILLE 2 NW, NC US",36.3796,-79.6944,271.3,2019-02,0,0,0,0,1.84,6.56,0
USW00013881,"CHARLOTTE DOUGLAS AIRPORT, NC US",35.2236,-80.9552,221.9,2019-02,0,0,0,0,1.28,5.86,0
USW00093782,"LAURINBURG MAXTON AIRPORT, NC US",34.79167,-79.36611,67.1,2019-02,,,,,0.55,1.87,
USW00093783,"BURLINGTON ALAMANCE REGIONAL AIRPORT, NC US",36.04667,-79.47694,188.1,2019-02,,,,,1.36,5.29,
USC00318778,"TURNERSBURG, NC US",35.9065,-80.8142,261.5,2019-02,,,,,1.16,6.45,
USC00316122,"NEW HILL, NC US",35.68107,-78.91557,97.5,2019-02,,,,,,,
USR0000NHOF,"HOFMANN FOREST NORTH CAROLINA, NC US",34.825,-77.3219,12.8,2019-02,,,,,,,
US1NCWN0011,"WILSON 2.3 WSW, NC US",35.714964,-77.959205,34.7,2019-02,,,,,,4.05,
US1NCPN0005,"ROXBORO 4.1 N, NC US",36.4599911,-78.9935077,162.5,2019-02,,,,,1.88,7,
US1NCCR0130,"HARKERS ISLAND 2.1 ESE, NC US",34.6856,-76.526,0.6,2019-02,,,,,4.31,6.9,
US1NCWN0006,"SIMS 4.0 SW, NC US",35.7208,-78.1108,68.9,2019-02,,,,,0.62,4.24,
USR0000NBAC,"BACK ISLAND NORTH CAROLINA, NC US",34.5328,-77.7219,6.1,2019-02,,,,,,,
USC00317229,"RHODHISS HYDRO PLANT, NC US",35.7747,-81.4372,297.5,2019-02,,,,,1.16,6.14,
USC00316380,"OLD FORT AG 3 W, NC US",35.6672,-82.1236,434.3,2019-02,0,0,0,0,1.11,6.7,0
USW00013872,"ASHEVILLE, NC US",35.5954,-82.5568,682.1,2019-02,0,0,0,0,0.83,4.7,0
US1NCHN0011,"ETOWAH 1.9 NW, NC US",35.33631944,-82.61565278,719.9,2019-02,,,,,1.33,8.32,
US1NCHN0012,"EAST FLAT ROCK 0.5 NNE, NC US",35.291041,-82.414334,647.7,2019-02,,,,,2.01,9.75,
US1NCHN0014,"HENDERSONVILLE 4.8 SW, NC US",35.279975,-82.530936,695.6,2019-02,,,,,1.98,9.7,
USC00317486,"ROSMAN, NC US",35.137,-82.8204,664.5,2019-02,0,0,0,0,2.4,11.26,0
US1NCHN0015,"HENDERSONVILLE 9.6 ENE, NC US",35.385745,-82.3103188,845.5,2019-02,,,,,1.52,7.99,
US1NCHN0016,"HENDERSONVILLE 3.4 NW, NC US",35.357838,-82.503878,671.2,2019-02,,,,,1.35,8.13,
USW00093740,"FAYETTEVILLE REGIONAL AIRPORT GRANNIS FIELD, NC US",34.99139,-78.88028,56.7,2019-02,,,,,0.68,2.06,
US1NCCR0120,"ATLANTIC BEACH 0.6 W, NC US",34.6987,-76.7497,3.4,2019-02,,,,,3.35,5.92,
US1NCNS0021,"ROCKY MOUNT 9.2 SW, NC US",35.85316,-77.91277,44.8,2019-02,,,,,0.71,5.04,
USC00311949,"COLUMBIA AG GUM NECK, NC US",35.7109,-76.127,3,2019-02,0,0,0,0,1.02,4.09,0
US1NCGS0058,"DALLAS 1.7 W, NC US",35.3151,-81.2074,232.6,2019-02,,,,,1.22,6.71,
US1NCMD0010,"OLD FORT 0.2 W, NC US",35.6322,-82.18,469.7,2019-02,,,,,1.3,5.75,
US1NCGS0053,"GASTONIA 1.6 WSW, NC US",35.2428,-81.1977,244.4,2019-02,,,,,1.14,5.52,
US1NCGS0054,"CATAWBA HILLS 0.1 SSE, NC US",35.214992,-81.109828,202.7,2019-02,,,,,1.33,6.07,
US1NCHN0002,"FLETCHER 1.2 WSW, NC US",35.430765,-82.524227,645,2019-02,,,,,1.33,7.13,
USC00311700,"CHATHAM WTP, NC US",35.73366,-79.00322,93.9,2019-02,,,,,0.82,4.55,
USC00319675,"YADKINVILLE 6 E, NC US",36.1306,-80.5481,266.7,2019-02,0,0,0,0,1.54,5.98,0
US1NCHN0004,"EAST FLAT ROCK 2.1 W, NC US",35.2817,-82.4564,737,2019-02,,,,,1.44,9.71,
US1NCGS0052,"GASTONIA 8.4 SW, NC US",35.165329,-81.274442,230.4,2019-02,,,,,0.98,5.33,
US1NCMD0009,"PLEASANT GARDENS 0.8 WSW, NC US",35.6891,-82.0742,409.7,2019-02,,,,,1.1,6.49,
US1NCMD0008,"OLD FORT 3.6 NW, NC US",35.67527,-82.21297,585.8,2019-02,,,,,1.04,6.44,
US1NCHN0033,"HENDERSONVILLE 5.1 WSW, NC US",35.288142,-82.542124,665.7,2019-02,,,,,1.83,9.7,
